[
  {
    "﻿ICAO": "AGGH",
    "IATA": "HIR",
    "AIRPORT": "HONIARA",
    "lat": -9.428055555555554,
    "lng": 160.05472222222224,
    "DMS": "09°25′41″S 160°03′17″E",
    "MSALat": -9.435,
    "MSALng": 160.03666666666666,
    "MSADMS": "S09 26.1 E160 02.2",
    "altitude": 9700
  },
  {
    "﻿ICAO": "AYPY",
    "IATA": "POM",
    "AIRPORT": "PORT MORESBY",
    "lat": -9.443333333333333,
    "lng": 147.22,
    "DMS": "09°26′36″S 147°13′12″E",
    "MSALat": -9.453333333333333,
    "MSALng": 147.215,
    "MSADMS": "S09 27.2 E147 12.9",
    "altitude": 8000
  },
  {
    "﻿ICAO": "BGSF",
    "IATA": "SFJ",
    "AIRPORT": "KANGERLUSSUAQ / STROMFORD",
    "lat": 67.01694444444445,
    "lng": -50.68944444444444,
    "DMS": "67°01′01″N 050°41′22″W",
    "MSALat": 66.96666666666667,
    "MSALng": -50.94166666666667,
    "MSADMS": "N66 58.0 W050 56.5",
    "altitude": 5300
  },
  {
    "﻿ICAO": "BGTL",
    "IATA": "THU",
    "AIRPORT": "THULE",
    "lat": 76.53111111111112,
    "lng": -68.70305555555557,
    "DMS": "76°31′52″N 68°42′11″W",
    "MSALat": 76.54166666666667,
    "MSALng": -68.24,
    "MSADMS": "N76 32.5 W068 14.4",
    "altitude": 6200
  },
  {
    "﻿ICAO": "BIKF",
    "IATA": "KEF",
    "AIRPORT": "KEFLAVIK",
    "lat": 63.985,
    "lng": -22.605555555555558,
    "DMS": "63°59′06″N 22°36′20″W",
    "MSALat": 63.983333333333334,
    "MSALng": -22.615,
    "MSADMS": "N63 59.0 W022 36.9",
    "altitude": 4000
  },
  {
    "﻿ICAO": "CYEG",
    "IATA": "YEG",
    "AIRPORT": "EDMONTON",
    "lat": 53.309999999999995,
    "lng": -113.57944444444443,
    "DMS": "53°18′36″N 113°34′46″W",
    "MSALat": 53.255,
    "MSALng": -113.66,
    "MSADMS": "N53 15.3 W113 39.6",
    "altitude": 4400
  },
  {
    "﻿ICAO": "CYFB",
    "IATA": "YFB",
    "AIRPORT": "IQALUIT/FROBISHER BAY",
    "lat": 63.75666666666667,
    "lng": -68.55611111111111,
    "DMS": "63°45′24″N 068°33′22″W",
    "MSALat": 63.74166666666667,
    "MSALng": -68.47333333333333,
    "MSADMS": "N63 44.5 W068 28.4",
    "altitude": 3600
  },
  {
    "﻿ICAO": "CYHM",
    "IATA": "YHM",
    "AIRPORT": "HAMILTON",
    "lat": 43.17361111111111,
    "lng": -79.935,
    "DMS": "43°10′25″N 079°56′06″W",
    "MSALat": 43.196666666666665,
    "MSALng": -80.02666666666667,
    "MSADMS": "N43 11.8 W080 01.6",
    "altitude": 3100
  },
  {
    "﻿ICAO": "CYHZ",
    "IATA": "YHZ",
    "AIRPORT": "HALIFAX",
    "lat": 44.87972222222222,
    "lng": -63.51027777777778,
    "DMS": "44°52′47″N 063°30′37″W",
    "MSALat": 44.92333333333333,
    "MSALng": -63.401666666666664,
    "MSADMS": "N44 55.4 W063 24.1",
    "altitude": 2200
  },
  {
    "﻿ICAO": "CYMM",
    "IATA": "YMM",
    "AIRPORT": "FORT MCMURRAY",
    "lat": 56.65333333333333,
    "lng": -111.22333333333333,
    "DMS": "56°39′12″N 111°13′24″W",
    "MSALat": 56.64666666666667,
    "MSALng": -111.12166666666667,
    "MSADMS": "N56 38.8 W111 07.3",
    "altitude": 4000
  },
  {
    "﻿ICAO": "CYOW",
    "IATA": "YOW",
    "AIRPORT": "OTTAWA",
    "lat": 45.322500000000005,
    "lng": -75.66722222222222,
    "DMS": "45°19′21″N 075°40′02″W",
    "MSALat": 45.32333333333333,
    "MSALng": -75.66666666666667,
    "MSADMS": "N45 19.4 W075 40.0",
    "altitude": 2900
  },
  {
    "﻿ICAO": "CYQB",
    "IATA": "YQB",
    "AIRPORT": "QUEBEC",
    "lat": 46.79111111111111,
    "lng": -71.39333333333335,
    "DMS": "46°47′28″N 071°23′36″W",
    "MSALat": 46.705,
    "MSALng": -71.62666666666667,
    "MSADMS": "N46 42.3 W071 37.6",
    "altitude": 4000
  },
  {
    "﻿ICAO": "CYQX",
    "IATA": "YQX",
    "AIRPORT": "GANDER",
    "lat": 48.93694444444444,
    "lng": -54.56805555555556,
    "DMS": "48°56′13″N 054°34′05″W",
    "MSALat": 48.9,
    "MSALng": -54.535,
    "MSADMS": "N48 54.0 W054 32.1",
    "altitude": 2700
  },
  {
    "﻿ICAO": "CYTR",
    "IATA": "YTR",
    "AIRPORT": "TRENTON",
    "lat": 44.11888888888889,
    "lng": -77.52805555555555,
    "DMS": "44°07′08″N 077°31′41″W",
    "MSALat": 44.053333333333335,
    "MSALng": -77.62666666666667,
    "MSADMS": "N44 03.2 W077 37.6",
    "altitude": 2800
  },
  {
    "﻿ICAO": "CYUL",
    "IATA": "YUL",
    "AIRPORT": "MONTREAL",
    "lat": 45.470555555555556,
    "lng": -73.74083333333333,
    "DMS": "45°28′14″N 073°44′27″W",
    "MSALat": 45.46,
    "MSALng": -73.84666666666666,
    "MSADMS": "N45 27.6 W073 50.8",
    "altitude": 3000
  },
  {
    "﻿ICAO": "CYVR",
    "IATA": "YVR",
    "AIRPORT": "VANCOUVER",
    "lat": 49.19472222222222,
    "lng": -123.18388888888889,
    "DMS": "49°11′41″N 123°11′02″W",
    "MSALat": 49.07666666666667,
    "MSALng": -123.14833333333333,
    "MSADMS": "N49 04.6 W123 08.9",
    "altitude": 7000
  },
  {
    "﻿ICAO": "CYWG",
    "IATA": "YWG",
    "AIRPORT": "WINNIPEG",
    "lat": 49.91,
    "lng": -97.24,
    "DMS": "49°54′36″N 097°14′24″W",
    "MSALat": 49.928333333333335,
    "MSALng": -97.24,
    "MSADMS": "N49 55.7 W097 14.4",
    "altitude": 2900
  },
  {
    "﻿ICAO": "CYXE",
    "IATA": "YXE",
    "AIRPORT": "SASKATOON / JOHN G. DIEFENBACHER",
    "lat": 52.170833333333334,
    "lng": -106.7,
    "DMS": "52°10′15″N 106°42′00″W",
    "MSALat": 52.181666666666665,
    "MSALng": -106.72,
    "MSADMS": "N52 10.9 W106 43.2",
    "altitude": 3700
  },
  {
    "﻿ICAO": "CYXU",
    "IATA": "YXU",
    "AIRPORT": "LONDON",
    "lat": 43.033055555555556,
    "lng": -81.15111111111112,
    "DMS": "43°01′59″N 81°09′04″W",
    "MSALat": 43.038333333333334,
    "MSALng": -81.14833333333333,
    "MSADMS": "N43 02.3 W081 08.9",
    "altitude": 3000
  },
  {
    "﻿ICAO": "CYXY",
    "IATA": "YXY",
    "AIRPORT": "WHITEHORSE",
    "lat": 60.70944444444445,
    "lng": -135.06722222222223,
    "DMS": "60°42′34″N 135°04′02″W",
    "MSALat": 60.63666666666667,
    "MSALng": -135.01,
    "MSADMS": "N60 38.2 W135 00.6",
    "altitude": 8500
  },
  {
    "﻿ICAO": "CYYC",
    "IATA": "YYC",
    "AIRPORT": "CALGARY",
    "lat": 51.1225,
    "lng": -114.01333333333334,
    "DMS": "51°07′21″N 114°00′48″W",
    "MSALat": 51.115,
    "MSALng": -113.88166666666666,
    "MSADMS": "N51 06.9 W113 52.9",
    "altitude": 6100
  },
  {
    "﻿ICAO": "CYYR",
    "IATA": "YYR",
    "AIRPORT": "GOOSEBAY",
    "lat": 53.31916666666667,
    "lng": -60.42583333333333,
    "DMS": "53°19′09″N 060°25′33″W",
    "MSALat": 53.32,
    "MSALng": -60.416666666666664,
    "MSADMS": "N53 19.2 W060 25.0",
    "altitude": 3100
  },
  {
    "﻿ICAO": "CYYT",
    "IATA": "YYT",
    "AIRPORT": "ST. JOHN'S",
    "lat": 47.618611111111115,
    "lng": -52.7525,
    "DMS": "47°37′07″N 052°45′09″W",
    "MSALat": 47.485,
    "MSALng": -52.85166666666667,
    "MSADMS": "N47 29.1 W052 51.1",
    "altitude": 2300
  },
  {
    "﻿ICAO": "CYYZ",
    "IATA": "YYZ",
    "AIRPORT": "TORONTO",
    "lat": 43.67666666666666,
    "lng": -79.63055555555555,
    "DMS": "43°40′36″N 079°37′50″W",
    "MSALat": 43.65833333333333,
    "MSALng": -79.63166666666666,
    "MSADMS": "N43 39.5 W079 37.9",
    "altitude": 3100
  },
  {
    "﻿ICAO": "CYZF",
    "IATA": "YZF",
    "AIRPORT": "YELLOWKNIFE",
    "lat": 62.463055555555556,
    "lng": -114.44027777777778,
    "DMS": "62°27′47″N 114°26′25″W",
    "MSALat": 62.465,
    "MSALng": -114.43666666666667,
    "MSADMS": "N62 27.9 W114 26.2",
    "altitude": 2200
  },
  {
    "﻿ICAO": "DAAG",
    "IATA": "ALG",
    "AIRPORT": "ALGIERS",
    "lat": 36.69101388888888,
    "lng": 3.2154083333333334,
    "DMS": "36°41′27.65″N 003°12′55.47″E",
    "MSALat": 36.795,
    "MSALng": 3.5716666666666668,
    "MSADMS": "N36 47.7 E003 34.3",
    "altitude": 8500
  },
  {
    "﻿ICAO": "DAAT",
    "IATA": "TMR",
    "AIRPORT": "TAMANRASSET",
    "lat": 22.811111111111114,
    "lng": 5.450833333333334,
    "DMS": "22°48′40″N 05°27′03″E",
    "MSALat": 22.808333333333334,
    "MSALng": 5.446666666666666,
    "MSADMS": "N22 48.5 E005 26.8",
    "altitude": 11700
  },
  {
    "﻿ICAO": "DAOO",
    "IATA": "ORN",
    "AIRPORT": "AHMED BEN BELLA",
    "lat": 35.621583333333334,
    "lng": -0.6232500000000001,
    "DMS": "35°37′17.7″N 0°37′23.7″W",
    "MSALat": 35.89833333333333,
    "MSALng": 0.13666666666666666,
    "MSADMS": "N35 53.9 E000 08.2",
    "altitude": 5000
  },
  {
    "﻿ICAO": "DAUZ",
    "IATA": "IAM",
    "AIRPORT": "ZARZAITINE",
    "lat": 28.05138888888889,
    "lng": 9.643055555555556,
    "DMS": "28°03′05″N 9°38′35″E",
    "MSALat": 28.066666666666666,
    "MSALng": 9.661666666666667,
    "MSADMS": "N28 04.0 E009 39.7",
    "altitude": 5000
  },
  {
    "﻿ICAO": "DBBB",
    "IATA": "COO",
    "AIRPORT": "COTONOU",
    "lat": 6.355833333333333,
    "lng": 2.385,
    "DMS": "6°21′21″N 2°23′06″E",
    "MSALat": 6.361666666666666,
    "MSALng": 2.3933333333333335,
    "MSADMS": "N06 21.7 E002 23.6",
    "altitude": 2000
  },
  {
    "﻿ICAO": "DFFD",
    "IATA": "OUA",
    "AIRPORT": "OUAGADOUGOU",
    "lat": 12.353055555555555,
    "lng": -1.5122222222222221,
    "DMS": "12°21′11″N 01°30′44″W",
    "MSALat": 12.346666666666668,
    "MSALng": -1.5133333333333332,
    "MSADMS": "N12 20.8 W001 30.8",
    "altitude": 2600
  },
  {
    "﻿ICAO": "DGAA",
    "IATA": "ACC",
    "AIRPORT": "ACRA",
    "lat": 5.604666666666667,
    "lng": -0.1673888888888889,
    "DMS": "05°36′16.8″N 000°10′02.6″W",
    "MSALat": 5.633333333333333,
    "MSALng": -0.155,
    "MSADMS": "N05 38.0 W000 09.3",
    "altitude": 2900
  },
  {
    "﻿ICAO": "DIAP",
    "IATA": "ABJ",
    "AIRPORT": "ABIDJAN",
    "lat": 5.261416666666666,
    "lng": -3.925777777777778,
    "DMS": "5°15′41.1″N 003°55′32.8″W",
    "MSALat": 5.283333333333333,
    "MSALng": -3.9166666666666665,
    "MSADMS": "N05 17.0 W003 55.0",
    "altitude": 2000
  },
  {
    "﻿ICAO": "DNAA",
    "IATA": "ABV",
    "AIRPORT": "ABUJA",
    "lat": 9.006666666666666,
    "lng": 7.263055555555556,
    "DMS": "9°00′24″N 7°15′47″E",
    "MSALat": 9.038333333333334,
    "MSALng": 7.285,
    "MSADMS": "N09 02.3 E007 17.1",
    "altitude": 5000
  },
  {
    "﻿ICAO": "DNKN",
    "IATA": "KAN",
    "AIRPORT": "KANO",
    "lat": 12.04861111111111,
    "lng": 8.522222222222224,
    "DMS": "12°02′55″N 8°31′20″E",
    "MSALat": 12.036666666666667,
    "MSALng": 8.496666666666666,
    "MSADMS": "N12 02.2 E008 29.8",
    "altitude": 4000
  },
  {
    "﻿ICAO": "DNMM",
    "IATA": "LOS",
    "AIRPORT": "LAGOS",
    "lat": 6.577222222222222,
    "lng": 3.3211111111111107,
    "DMS": "06°34′38″N 003°19′16″E",
    "MSALat": 6.708333333333333,
    "MSALng": 3.3266666666666667,
    "MSADMS": "N06 42.5 E003 19.6",
    "altitude": 2200
  },
  {
    "﻿ICAO": "DNPO",
    "IATA": "PHC",
    "AIRPORT": "PORT HARCOURT",
    "lat": 5.0152777777777775,
    "lng": 6.95,
    "DMS": "5°00′55″N 6°57′00″E",
    "MSALat": 5.035,
    "MSALng": 6.96,
    "MSADMS": "N05 02.1 E006 57.6",
    "altitude": 2400
  },
  {
    "﻿ICAO": "DRRN",
    "IATA": "NIM",
    "AIRPORT": "NIAMEY",
    "lat": 13.481666666666667,
    "lng": 2.1702777777777778,
    "DMS": "13°28′54″N 002°10′13″E",
    "MSALat": 13.483333333333333,
    "MSALng": 2.2066666666666666,
    "MSADMS": "N13 29.0 E002 12.4",
    "altitude": 3300
  },
  {
    "﻿ICAO": "DTKA",
    "IATA": "TBJ",
    "AIRPORT": "TABARAKA",
    "lat": 36.980000000000004,
    "lng": 8.876944444444446,
    "DMS": "36°58′48″N 08°52′37″E",
    "MSALat": 36.97833333333333,
    "MSALng": 8.883333333333333,
    "MSADMS": "N36 58.7 E008 53.0",
    "altitude": 5200
  },
  {
    "﻿ICAO": "DTMB",
    "IATA": "MIR",
    "AIRPORT": "MONASTIR",
    "lat": 35.75805555555556,
    "lng": 10.754722222222222,
    "DMS": "35°45′29″N 010°45′17″E",
    "MSALat": 35.755,
    "MSALng": 10.748333333333333,
    "MSADMS": "N35 45.3 E010 44.9",
    "altitude": 1800
  },
  {
    "﻿ICAO": "DTNH",
    "IATA": "NBE",
    "AIRPORT": "ENFIDHA",
    "lat": 36.075833333333335,
    "lng": 10.438611111111111,
    "DMS": "36°04′33″N 10°26′19″E",
    "MSALat": 36.07333333333333,
    "MSALng": 10.435,
    "MSADMS": "N36 04.4 E010 26.1",
    "altitude": 5300
  },
  {
    "﻿ICAO": "DTTA",
    "IATA": "TUN",
    "AIRPORT": "TUNIS",
    "lat": 36.85111111111111,
    "lng": 10.227222222222222,
    "DMS": "36°51′04″N 010°13′38″E",
    "MSALat": 36.85166666666667,
    "MSALng": 10.231666666666667,
    "MSADMS": "N36 51.1 E010 13.9",
    "altitude": 5300
  },
  {
    "﻿ICAO": "DTTJ",
    "IATA": "DJE",
    "AIRPORT": "DJERBA",
    "lat": 33.875,
    "lng": 10.775277777777779,
    "DMS": "33°52′30″N 10°46′31″E",
    "MSALat": 33.876666666666665,
    "MSALng": 10.771666666666667,
    "MSADMS": "N33 52.6 E010 46.3",
    "altitude": 2400
  },
  {
    "﻿ICAO": "DTTX",
    "IATA": "SFA",
    "AIRPORT": "SFAX",
    "lat": 34.717777777777776,
    "lng": 10.690833333333334,
    "DMS": "34°43′04″N 010°41′27″E",
    "MSALat": 34.71666666666667,
    "MSALng": 10.688333333333333,
    "MSADMS": "N34 43.0 E010 41.3",
    "altitude": 2200
  },
  {
    "﻿ICAO": "DXXX",
    "IATA": "LFW",
    "AIRPORT": "LOME",
    "lat": 6.165611111111112,
    "lng": 1.2545111111111111,
    "DMS": "06°09′56.2″N 01°15′16.24″E",
    "MSALat": 6.183333333333334,
    "MSALng": 1.2683333333333333,
    "MSADMS": "N06 11.0 E001 16.1",
    "altitude": 2000
  },
  {
    "﻿ICAO": "EBBR",
    "IATA": "BRU",
    "AIRPORT": "BRUSSLELS",
    "lat": 50.90138888888889,
    "lng": 4.484444444444445,
    "DMS": "50°54′05″N 004°29′04″E",
    "MSALat": 50.901666666666664,
    "MSALng": 4.538333333333333,
    "MSADMS": "N50 54.1 E004 32.3",
    "altitude": 2200
  },
  {
    "﻿ICAO": "EBLG",
    "IATA": "LGG",
    "AIRPORT": "LIEGE",
    "lat": 50.63638888888889,
    "lng": 5.442777777777778,
    "DMS": "50°38′11″N 005°26′34″E",
    "MSALat": 50.653333333333336,
    "MSALng": 5.47,
    "MSADMS": "N50 39.2 E005 28.2",
    "altitude": 3500
  },
  {
    "﻿ICAO": "EDDC",
    "IATA": "DRS",
    "AIRPORT": "DRESDEN",
    "lat": 51.13444444444444,
    "lng": 13.768055555555556,
    "DMS": "51°08′04″N 13°46′05″E",
    "MSALat": 51.015,
    "MSALng": 13.598333333333333,
    "MSADMS": "N51 00.9 E013 35.9",
    "altitude": 4300
  },
  {
    "﻿ICAO": "EDDF",
    "IATA": "FRA",
    "AIRPORT": "FRANKFURT",
    "lat": 50.03333333333333,
    "lng": 8.570555555555556,
    "DMS": "50°02′00″N 008°34′14″E",
    "MSALat": 50.053333333333335,
    "MSALng": 8.636666666666667,
    "MSADMS": "N50 03.2 E008 38.2",
    "altitude": 4300
  },
  {
    "﻿ICAO": "EDDH",
    "IATA": "HAM",
    "AIRPORT": "HAMBURG",
    "lat": 53.63027777777778,
    "lng": 9.99111111111111,
    "DMS": "53°37′49″N 009°59′28″E",
    "MSALat": 53.685,
    "MSALng": 10.205,
    "MSADMS": "N53 41.1 E010 12.3",
    "altitude": 2100
  },
  {
    "﻿ICAO": "EDDK",
    "IATA": "CGN",
    "AIRPORT": "COLOGNE",
    "lat": 50.865833333333335,
    "lng": 7.142777777777778,
    "DMS": "50°51′57″N 007°08′34″E",
    "MSALat": 50.861666666666665,
    "MSALng": 7.145,
    "MSADMS": "N50 51.7 E007 08.7",
    "altitude": 3800
  },
  {
    "﻿ICAO": "EDDL",
    "IATA": "DUS",
    "AIRPORT": "DUSSLEDORF",
    "lat": 51.28944444444444,
    "lng": 6.766666666666667,
    "DMS": "51°17′22″N 006°46′00″E",
    "MSALat": 51.28333333333333,
    "MSALng": 6.753333333333334,
    "MSADMS": "N51 17.0 E006 45.2",
    "altitude": 2800
  },
  {
    "﻿ICAO": "EDDM",
    "IATA": "MUC",
    "AIRPORT": "MUNICH",
    "lat": 48.35388888888889,
    "lng": 11.786111111111111,
    "DMS": "48°21′14″N 011°47′10″E",
    "MSALat": 48.375,
    "MSALng": 11.913333333333334,
    "MSADMS": "N48 22.5 E011 54.8",
    "altitude": 3700
  },
  {
    "﻿ICAO": "EDDN",
    "IATA": "NUE",
    "AIRPORT": "NURENBERG",
    "lat": 49.49861111111111,
    "lng": 11.078055555555554,
    "DMS": "49°29′55″N 011°04′41″E",
    "MSALat": 49.50333333333333,
    "MSALng": 11.035,
    "MSADMS": "N49 30.2 E011 02.1",
    "altitude": 3800
  },
  {
    "﻿ICAO": "EDDP",
    "IATA": "LEJ",
    "AIRPORT": "LEIPZIG-HALLE",
    "lat": 51.42388888888889,
    "lng": 12.236388888888888,
    "DMS": "51°25′26″N 012°14′11″E",
    "MSALat": 51.42333333333333,
    "MSALng": 12.236666666666666,
    "MSADMS": "N51 25.4 E012 14.2",
    "altitude": 2700
  },
  {
    "﻿ICAO": "EDDT",
    "IATA": "TXL",
    "AIRPORT": "BERLIN TEGEL",
    "lat": 52.55972222222222,
    "lng": 13.287777777777778,
    "DMS": "52°33′35″N 013°17′16″E",
    "MSALat": 52.56166666666667,
    "MSALng": 13.288333333333334,
    "MSADMS": "N52 33.7 E013 17.3",
    "altitude": 2400
  },
  {
    "﻿ICAO": "EDDV",
    "IATA": "HAJ",
    "AIRPORT": "HANNOVER",
    "lat": 52.46083333333333,
    "lng": 9.685,
    "DMS": "52°27′39″N 009°41′06″E",
    "MSALat": 52.46,
    "MSALng": 9.683333333333334,
    "MSADMS": "N52 27.6 E009 41.0",
    "altitude": 2800
  },
  {
    "﻿ICAO": "EDFH",
    "IATA": "HHN",
    "AIRPORT": "FRANKFURT-HAHN",
    "lat": 49.94833333333333,
    "lng": 7.264166666666667,
    "DMS": "49°56′54″N 007°15′51″E",
    "MSALat": 49.965,
    "MSALng": 7.281666666666666,
    "MSADMS": "N49 57.9 E007 16.9",
    "altitude": 4200
  },
  {
    "﻿ICAO": "EDHI",
    "IATA": "XFW",
    "AIRPORT": "HAMBURG (FINKENWERDER)",
    "lat": 53.53583333333333,
    "lng": 9.836944444444445,
    "DMS": "53°32′09″N 09°50′13″E",
    "MSALat": 53.685,
    "MSALng": 10.205,
    "MSADMS": "N53 41.1 E010 12.3",
    "altitude": 2100
  },
  {
    "﻿ICAO": "EETN",
    "IATA": "TLL",
    "AIRPORT": "TALLINN",
    "lat": 59.413333333333334,
    "lng": 24.8325,
    "DMS": "59°24′48″N 024°49′57″E",
    "MSALat": 59.41166666666667,
    "MSALng": 24.838333333333335,
    "MSADMS": "N59 24.7 E024 50.3",
    "altitude": 2200
  },
  {
    "﻿ICAO": "EFHK",
    "IATA": "HEL",
    "AIRPORT": "HELSINKI",
    "lat": 60.31722222222223,
    "lng": 24.96333333333333,
    "DMS": "60°19′02″N 024°57′48″E",
    "MSALat": 60.33833333333333,
    "MSALng": 24.953333333333333,
    "MSADMS": "N60 20.3 E024 57.2",
    "altitude": 2200
  },
  {
    "﻿ICAO": "EFRO",
    "IATA": "RVN",
    "AIRPORT": "ROVANIEMI",
    "lat": 66.56166666666667,
    "lng": 25.830833333333334,
    "DMS": "66°33′42″N 025°49′51″E",
    "MSALat": 66.56333333333333,
    "MSALng": 25.82,
    "MSADMS": "N66 33.8 E025 49.2",
    "altitude": 2400
  },
  {
    "﻿ICAO": "EGBB",
    "IATA": "BHX",
    "AIRPORT": "BIRMINGHAM",
    "lat": 52.45388888888889,
    "lng": -1.7480555555555557,
    "DMS": "52°27′14″N 001°44′53″W",
    "MSALat": 52.455,
    "MSALng": -1.7516666666666667,
    "MSADMS": "N52 27.3 W001 45.1",
    "altitude": 2500
  },
  {
    "﻿ICAO": "EGCC",
    "IATA": "MAN",
    "AIRPORT": "MANCHESTER",
    "lat": 53.35388888888889,
    "lng": -2.275,
    "DMS": "53°21′14″N 002°16′30″W",
    "MSALat": 53.35666666666667,
    "MSALng": -2.2616666666666667,
    "MSADMS": "N53 21.4 W002 15.7",
    "altitude": 3500
  },
  {
    "﻿ICAO": "EGCN",
    "IATA": "DSA",
    "AIRPORT": "DONCASTER SHEFFIELD",
    "lat": 53.47527777777778,
    "lng": -1.0041666666666667,
    "DMS": "53°28′31″N 001°00′15″W",
    "MSALat": 53.475,
    "MSALng": -1.0016666666666667,
    "MSADMS": "N53 28.5 W001 00.1",
    "altitude": 3100
  },
  {
    "﻿ICAO": "EGKK",
    "IATA": "LGW",
    "AIRPORT": "LONDON LGW",
    "lat": 51.14805555555556,
    "lng": -0.19027777777777777,
    "DMS": "51°08′53″N 000°11′25″W",
    "MSALat": 51.14833333333333,
    "MSALng": -0.19,
    "MSADMS": "N51 08.9 W000 11.4",
    "altitude": 2300
  },
  {
    "﻿ICAO": "EGLL",
    "IATA": "LHR",
    "AIRPORT": "LONDON LHR",
    "lat": 51.4775,
    "lng": -0.4613888888888889,
    "DMS": "51°28′39″N 000°27′41″W",
    "MSALat": 51.486666666666665,
    "MSALng": -0.4666666666666667,
    "MSADMS": "N51 29.2 W000 28.0",
    "altitude": 2200
  },
  {
    "﻿ICAO": "EGNT",
    "IATA": "NCL",
    "AIRPORT": "NEWCASTLE",
    "lat": 55.03805555555555,
    "lng": -1.6897222222222223,
    "DMS": "55°02′17″N 001°41′23″W",
    "MSALat": 55.05,
    "MSALng": -1.6433333333333333,
    "MSADMS": "N55 03.0 W001 38.6",
    "altitude": 3400
  },
  {
    "﻿ICAO": "EGNX",
    "IATA": "EMA",
    "AIRPORT": "EAST MIDLANDS",
    "lat": 52.83111111111111,
    "lng": -1.3277777777777777,
    "DMS": "52°49′52″N 001°19′40″W",
    "MSALat": 52.82833333333333,
    "MSALng": -1.455,
    "MSADMS": "N52 49.7 W001 27.3",
    "altitude": 2700
  },
  {
    "﻿ICAO": "EGPF",
    "IATA": "GLA",
    "AIRPORT": "GLASGOW",
    "lat": 55.871944444444445,
    "lng": -4.433055555555556,
    "DMS": "55°52′19″N 004°25′59″W",
    "MSALat": 55.87,
    "MSALng": -4.445,
    "MSADMS": "N55 52.2 W004 26.7",
    "altitude": 4900
  },
  {
    "﻿ICAO": "EGPH",
    "IATA": "EDI",
    "AIRPORT": "EDINBURGH",
    "lat": 55.95,
    "lng": -3.3725,
    "DMS": "55°57′00″N 003°22′21″W",
    "MSALat": 55.95,
    "MSALng": -3.373333333333333,
    "MSADMS": "N55 57.0 W003 22.4",
    "altitude": 3900
  },
  {
    "﻿ICAO": "EGPK",
    "IATA": "PIK",
    "AIRPORT": "PRESTWICK",
    "lat": 55.50944444444445,
    "lng": -4.594444444444444,
    "DMS": "55°30′34″N 004°35′40″W",
    "MSALat": 55.50666666666667,
    "MSALng": -4.576666666666666,
    "MSADMS": "N55 30.4 W004 34.6",
    "altitude": 4000
  },
  {
    "﻿ICAO": "EGSS",
    "IATA": "STN",
    "AIRPORT": "LONDON STN",
    "lat": 51.885,
    "lng": 0.23500000000000001,
    "DMS": "51°53′06″N 000°14′06″E",
    "MSALat": 51.885,
    "MSALng": 0.235,
    "MSADMS": "N51 53.1 E000 14.1",
    "altitude": 2000
  },
  {
    "﻿ICAO": "EHAM",
    "IATA": "AMS",
    "AIRPORT": "AMSTERDAM",
    "lat": 52.308055555555555,
    "lng": 4.764166666666667,
    "DMS": "52°18′29″N 004°45′51″E",
    "MSALat": 52.33166666666666,
    "MSALng": 4.75,
    "MSADMS": "N52 19.9 E004 45.0",
    "altitude": 2300
  },
  {
    "﻿ICAO": "EHBK",
    "IATA": "MST",
    "AIRPORT": "MAASTRICHT",
    "lat": 50.91583333333333,
    "lng": 5.776944444444444,
    "DMS": "50°54′57″N 005°46′37″E",
    "MSALat": 50.971666666666664,
    "MSALng": 5.96,
    "MSADMS": "N50 58.3 E005 57.6",
    "altitude": 3600
  },
  {
    "﻿ICAO": "EIDW",
    "IATA": "DUB",
    "AIRPORT": "DUBLIN",
    "lat": 53.421388888888885,
    "lng": -6.27,
    "DMS": "53°25′17″N 006°16′12″W",
    "MSALat": 53.5,
    "MSALng": -6.306666666666667,
    "MSADMS": "N53 30.0 W006 18.4",
    "altitude": 4000
  },
  {
    "﻿ICAO": "EINN",
    "IATA": "SNN",
    "AIRPORT": "SHANNON",
    "lat": 52.70194444444445,
    "lng": -8.924722222222222,
    "DMS": "52°42′07″N 008°55′29″W",
    "MSALat": 52.721666666666664,
    "MSALng": -8.885,
    "MSADMS": "N52 43.3 W008 53.1",
    "altitude": 3400
  },
  {
    "﻿ICAO": "EKBI",
    "IATA": "BLL",
    "AIRPORT": "BILLUND",
    "lat": 55.74027777777778,
    "lng": 9.151944444444444,
    "DMS": "55°44′25″N 009°09′07″E",
    "MSALat": 55.74,
    "MSALng": 9.151666666666667,
    "MSADMS": "N55 44.4 E009 09.1",
    "altitude": 2300
  },
  {
    "﻿ICAO": "EKCH",
    "IATA": "CPH",
    "AIRPORT": "COPENHAGEN",
    "lat": 55.61805555555556,
    "lng": 12.65611111111111,
    "DMS": "55°37′05″N 012°39′22″E",
    "MSALat": 55.59,
    "MSALng": 12.613333333333333,
    "MSADMS": "N55 35.4 E012 36.8",
    "altitude": 2100
  },
  {
    "﻿ICAO": "ELLX",
    "IATA": "LUX",
    "AIRPORT": "LUXEMBOURG",
    "lat": 49.623333333333335,
    "lng": 6.204444444444444,
    "DMS": "49°37′24″N 006°12′16″E",
    "MSALat": 49.64,
    "MSALng": 6.246666666666667,
    "MSADMS": "N49 38.4 E006 14.8",
    "altitude": 4000
  },
  {
    "﻿ICAO": "ENBO",
    "IATA": "BOO",
    "AIRPORT": "BODO",
    "lat": 67.26916666666666,
    "lng": 14.365277777777777,
    "DMS": "67°16′09″N 014°21′55″E",
    "MSALat": 67.26666666666667,
    "MSALng": 14.365,
    "MSADMS": "N67 16.0 E014 21.9",
    "altitude": 6200
  },
  {
    "﻿ICAO": "ENBR",
    "IATA": "BGO",
    "AIRPORT": "BERGEN",
    "lat": 60.29361111111111,
    "lng": 5.218055555555556,
    "DMS": "60°17′37″N 005°13′05″E",
    "MSALat": 60.31166666666667,
    "MSALng": 5.211666666666667,
    "MSADMS": "N60 18.7 E005 12.7",
    "altitude": 5500
  },
  {
    "﻿ICAO": "ENGM",
    "IATA": "OSL",
    "AIRPORT": "OSLO",
    "lat": 60.20277777777778,
    "lng": 11.08388888888889,
    "DMS": "60°12′10″N 011°05′02″E",
    "MSALat": 60.19166666666667,
    "MSALng": 11.075,
    "MSADMS": "N60 11.5 E011 04.5",
    "altitude": 3900
  },
  {
    "﻿ICAO": "ENSB",
    "IATA": "LYR",
    "AIRPORT": "SVALBARAD LONGYEAR",
    "lat": 78.2461111111111,
    "lng": 15.465555555555556,
    "DMS": "78°14′46″N 015°27′56″E",
    "MSALat": 78.25,
    "MSALng": 15.401666666666667,
    "MSADMS": "N78 15.0 E015 24.1",
    "altitude": 5100
  },
  {
    "﻿ICAO": "ENVA",
    "IATA": "TRD",
    "AIRPORT": "TRONDHEIM",
    "lat": 63.4575,
    "lng": 10.924166666666666,
    "DMS": "63°27′27″N 010°55′27″E",
    "MSALat": 63.458333333333336,
    "MSALng": 10.925,
    "MSADMS": "N63 27.5 E010 55.5",
    "altitude": 5800
  },
  {
    "﻿ICAO": "ENZV",
    "IATA": "SVG",
    "AIRPORT": "STAVANGER",
    "lat": 58.876666666666665,
    "lng": 5.637777777777777,
    "DMS": "58°52′36″N 005°38′16″E",
    "MSALat": 58.875,
    "MSALng": 5.64,
    "MSADMS": "N58 52.5 E005 38.4",
    "altitude": 4800
  },
  {
    "﻿ICAO": "EPGD",
    "IATA": "GDN",
    "AIRPORT": "GDANSK",
    "lat": 54.3775,
    "lng": 18.46611111111111,
    "DMS": "54°22′39″N 018°27′58″E",
    "MSALat": 54.388333333333335,
    "MSALng": 18.425,
    "MSADMS": "N54 23.3 E018 25.5",
    "altitude": 2700
  },
  {
    "﻿ICAO": "EPPO",
    "IATA": "POZ",
    "AIRPORT": "POZNAN",
    "lat": 52.42111111111111,
    "lng": 16.82638888888889,
    "DMS": "52°25′16″N 016°49′35″E",
    "MSALat": 52.42166666666667,
    "MSALng": 16.826666666666668,
    "MSADMS": "N52 25.3 E016 49.6",
    "altitude": 2300
  },
  {
    "﻿ICAO": "EPWA",
    "IATA": "WAW",
    "AIRPORT": "WARSAW",
    "lat": 52.16583333333333,
    "lng": 20.96722222222222,
    "DMS": "52°09′57″N 20°58′02″E",
    "MSALat": 52.17,
    "MSALng": 20.96,
    "MSADMS": "N52 10.2 E020 57.6",
    "altitude": 2500
  },
  {
    "﻿ICAO": "ESGG",
    "IATA": "GOT",
    "AIRPORT": "GOTEBORG",
    "lat": 57.66,
    "lng": 12.29111111111111,
    "DMS": "57°39′36″N 012°17′28″E",
    "MSALat": 57.66,
    "MSALng": 12.291666666666666,
    "MSADMS": "N57 39.6 E012 17.5",
    "altitude": 3200
  },
  {
    "﻿ICAO": "ESMS",
    "IATA": "MMX",
    "AIRPORT": "MALMO",
    "lat": 55.53,
    "lng": 13.37138888888889,
    "DMS": "55°31′48″N 013°22′17″E",
    "MSALat": 55.535,
    "MSALng": 13.38,
    "MSADMS": "N55 32.1 E013 22.8",
    "altitude": 2600
  },
  {
    "﻿ICAO": "ESSA",
    "IATA": "ARN",
    "AIRPORT": "STOCKHOLM",
    "lat": 59.651944444444446,
    "lng": 17.91861111111111,
    "DMS": "59°39′07″N 017°55′07″E",
    "MSALat": 59.653333333333336,
    "MSALng": 17.915,
    "MSADMS": "N59 39.2 E017 54.9",
    "altitude": 2200
  },
  {
    "﻿ICAO": "EVRA",
    "IATA": "RIX",
    "AIRPORT": "RIGA",
    "lat": 56.92361111111111,
    "lng": 23.97111111111111,
    "DMS": "56°55′25″N 023°58′16″E",
    "MSALat": 56.92166666666667,
    "MSALng": 23.965,
    "MSADMS": "N56 55.3 E023 57.9",
    "altitude": 2300
  },
  {
    "﻿ICAO": "EYVI",
    "IATA": "VNO",
    "AIRPORT": "VILNIUS",
    "lat": 54.636944444444445,
    "lng": 25.28777777777778,
    "DMS": "54°38′13″N 025°17′16″E",
    "MSALat": 54.63666666666667,
    "MSALng": 25.293333333333333,
    "MSADMS": "N54 38.2 E025 17.6",
    "altitude": 2700
  },
  {
    "﻿ICAO": "FABL",
    "IATA": "BFN",
    "AIRPORT": "BLOEMFONTEIN",
    "lat": -29.093888888888888,
    "lng": 26.30388888888889,
    "DMS": "29°05′38″S 26°18′14″E",
    "MSALat": -29.1,
    "MSALng": 26.3,
    "MSADMS": "S29 06.0 E026 18.0",
    "altitude": 7800
  },
  {
    "﻿ICAO": "FACT",
    "IATA": "CPT",
    "AIRPORT": "CAPETOWN",
    "lat": -33.96944444444445,
    "lng": 18.59722222222222,
    "DMS": "33°58′10″S 018°35′50″E",
    "MSALat": -33.97,
    "MSALng": 18.605,
    "MSADMS": "S33 58.2 E018 36.3",
    "altitude": 7300
  },
  {
    "﻿ICAO": "FALE",
    "IATA": "DUR",
    "AIRPORT": "DURBAN",
    "lat": -29.616666666666667,
    "lng": 31.108333333333334,
    "DMS": "29°37.0′S 031°6.5′E",
    "MSALat": -29.611666666666668,
    "MSALng": 31.125,
    "MSADMS": "S29 36.7 E031 07.5",
    "altitude": 5300
  },
  {
    "﻿ICAO": "FAOR",
    "IATA": "JNB",
    "AIRPORT": "JOHANSEBURG",
    "lat": -26.133333333333333,
    "lng": 28.25,
    "DMS": "26°08′00″S 028°15′00″E",
    "MSALat": -26.156666666666666,
    "MSALng": 28.231666666666666,
    "MSADMS": "S26 09.4 E028 13.9",
    "altitude": 8400
  },
  {
    "﻿ICAO": "FBSK",
    "IATA": "GBE",
    "AIRPORT": "GABORONE",
    "lat": -24.55527777777778,
    "lng": 25.918333333333333,
    "DMS": "24°33′19″S 025°55′06″E",
    "MSALat": -24.551666666666666,
    "MSALng": 25.921666666666667,
    "MSADMS": "S24 33.1 E025 55.3",
    "altitude": 6000
  },
  {
    "﻿ICAO": "FCBB",
    "IATA": "BZV",
    "AIRPORT": "BRAZZAVILLE",
    "lat": -4.251666666666667,
    "lng": 15.253055555555555,
    "DMS": "04°15′06″S 15°15′11″E",
    "MSALat": -4.251666666666667,
    "MSALng": 15.246666666666666,
    "MSADMS": "S04 15.1 E015 14.8",
    "altitude": 4500
  },
  {
    "﻿ICAO": "FEFF",
    "IATA": "BGF",
    "AIRPORT": "BANGUI",
    "lat": 4.398475,
    "lng": 18.518786111111112,
    "DMS": "04°23′54.51″N 018°31′07.63″E",
    "MSALat": 4.378333333333333,
    "MSALng": 18.525,
    "MSADMS": "N04 22.7 E018 31.5",
    "altitude": 4800
  },
  {
    "﻿ICAO": "FHAW",
    "IATA": "ASI",
    "AIRPORT": "ASCENSION ISLAND",
    "lat": -7.969444444444445,
    "lng": -14.393888888888888,
    "DMS": "07°58′10″S 014°23′38″W",
    "MSALat": -7.97,
    "MSALng": -14.396666666666667,
    "MSADMS": "S07 58.2 W014 23.8",
    "altitude": 4000
  },
  {
    "﻿ICAO": "FIMP",
    "IATA": "MRU",
    "AIRPORT": "MAURITIUS",
    "lat": -20.430027777777777,
    "lng": 57.68302222222222,
    "DMS": "20°25′48.10″S 57°40′58.88″E",
    "MSALat": -20.42,
    "MSALng": 57.66166666666667,
    "MSADMS": "S20 25.2 E057 39.7",
    "altitude": 3800
  },
  {
    "﻿ICAO": "FJDG",
    "IATA": "NKW",
    "AIRPORT": "DIEGO GARCIA",
    "lat": -7.3133333333333335,
    "lng": 72.41111111111111,
    "DMS": "7°18′48″S 72°24′40″E",
    "MSALat": -7.316666666666666,
    "MSALng": 72.41166666666666,
    "MSADMS": "S07 19.0 E072 24.7",
    "altitude": 1300
  },
  {
    "﻿ICAO": "FKKD",
    "IATA": "DLA",
    "AIRPORT": "DOUALA",
    "lat": 4.005833333333333,
    "lng": 9.719444444444445,
    "DMS": "04°00′21″N 009°43′10″E",
    "MSALat": 3.993333333333333,
    "MSALng": 9.743333333333334,
    "MSADMS": "N03 59.6 E009 44.6",
    "altitude": 3800
  },
  {
    "﻿ICAO": "FKYS",
    "IATA": "NSI",
    "AIRPORT": "YAOUNDE NSIMALEN",
    "lat": 3.7225,
    "lng": 11.553333333333335,
    "DMS": "03°43′21″N 011°33′12″E",
    "MSALat": 3.725,
    "MSALng": 11.556666666666667,
    "MSADMS": "N03 43.5 E011 33.4",
    "altitude": 5800
  },
  {
    "﻿ICAO": "FLKK",
    "IATA": "LUN",
    "AIRPORT": "LUSAKA",
    "lat": -15.331666666666667,
    "lng": 28.434166666666666,
    "DMS": "15°19′54″S 28°26′03″E",
    "MSALat": 15.328333333333333,
    "MSALng": 28.533333333333335,
    "MSADMS": "N15 19.7 E028 32.0",
    "altitude": 6100
  },
  {
    "﻿ICAO": "FMEE",
    "IATA": "RUN",
    "AIRPORT": "ST DENIS REUNION",
    "lat": -20.89,
    "lng": 55.51638888888889,
    "DMS": "20°53′24″S 055°30′59″E",
    "MSALat": -20.885,
    "MSALng": 55.51,
    "MSADMS": "S20 53.1 E055 30.6",
    "altitude": 12000
  },
  {
    "﻿ICAO": "FMMI",
    "IATA": "TNR",
    "AIRPORT": "ANTANANARIVO",
    "lat": -18.796944444444446,
    "lng": 47.47888888888889,
    "DMS": "18°47′49″S 47°28′44″E",
    "MSALat": -18.803333333333335,
    "MSALng": 47.51833333333333,
    "MSADMS": "S18 48.2 E047 31.1",
    "altitude": 9400
  },
  {
    "﻿ICAO": "FNLU",
    "IATA": "LAD",
    "AIRPORT": "LUANDA",
    "lat": -8.858333333333333,
    "lng": 13.231111111111112,
    "DMS": "08°51′30″S 13°13′52″E",
    "MSALat": -8.845,
    "MSALng": 13.246666666666666,
    "MSADMS": "S08 50.7 E013 14.8",
    "altitude": 2500
  },
  {
    "﻿ICAO": "FOOL",
    "IATA": "LBV",
    "AIRPORT": "LIBREVILLE",
    "lat": 0.45861111111111114,
    "lng": 9.412222222222223,
    "DMS": "00°27′31″N 009°24′44″E",
    "MSALat": 0.48000000000000004,
    "MSALng": 9.401666666666667,
    "MSADMS": "N00 28.8 E009 24.1",
    "altitude": 2100
  },
  {
    "﻿ICAO": "FQBR",
    "IATA": "BEW",
    "AIRPORT": "BEIRA",
    "lat": -19.79638888888889,
    "lng": 34.9075,
    "DMS": "19°47′47″S 034°54′27″E",
    "MSALat": -19.786666666666665,
    "MSALng": 34.87166666666667,
    "MSADMS": "S19 47.2 E034 52.3",
    "altitude": 1500
  },
  {
    "﻿ICAO": "FQMA",
    "IATA": "MPM",
    "AIRPORT": "MAPUTO",
    "lat": -25.920833333333334,
    "lng": 32.572500000000005,
    "DMS": "25°55′15″S 032°34′21″E",
    "MSALat": -25.868333333333332,
    "MSALng": 32.605,
    "MSADMS": "S25 52.1 E032 36.3",
    "altitude": 2800
  },
  {
    "﻿ICAO": "FSIA",
    "IATA": "SEZ",
    "AIRPORT": "SEYCHELLES",
    "lat": -4.674444444444445,
    "lng": 55.52194444444444,
    "DMS": "04°40′28″S 55°31′19″E",
    "MSALat": -4.675,
    "MSALng": 55.52166666666667,
    "MSADMS": "S04 40.5 E055 31.3",
    "altitude": 4500
  },
  {
    "﻿ICAO": "FTTJ",
    "IATA": "NDJ",
    "AIRPORT": "N'DJAMENA",
    "lat": 12.13361111111111,
    "lng": 15.033888888888889,
    "DMS": "12°08′01″N 015°02′02″E",
    "MSALat": 12.141666666666667,
    "MSALng": 15.038333333333334,
    "MSADMS": "N12 08.5 E015 02.3",
    "altitude": 3000
  },
  {
    "﻿ICAO": "FVFA",
    "IATA": "VFA",
    "AIRPORT": "VICTORIA FALLS",
    "lat": -18.09583333333333,
    "lng": 25.83888888888889,
    "DMS": "18°05′45″S 25°50′20″E",
    "MSALat": -18.09,
    "MSALng": 25.815,
    "MSADMS": "S18 05.4 E025 48.9",
    "altitude": 4900
  },
  {
    "﻿ICAO": "FVRG",
    "IATA": "HRE",
    "AIRPORT": "HARARE",
    "lat": -17.931805555555556,
    "lng": 31.092847222222222,
    "DMS": "17°55′54.5″S 31°05′34.25″E",
    "MSALat": -17.906666666666666,
    "MSALng": 31.118333333333332,
    "MSADMS": "S17 54.4 E031 07.1",
    "altitude": 7000
  },
  {
    "﻿ICAO": "FWKI",
    "IATA": "LLW",
    "AIRPORT": "LILONGWE / KAMUZU INTL",
    "lat": -13.789166666666667,
    "lng": 33.780833333333334,
    "DMS": "13°47′21″S 033°46′51″E",
    "MSALat": -13.843333333333334,
    "MSALng": 33.848333333333336,
    "MSADMS": "S13 50.6 E033 50.9",
    "altitude": 7000
  },
  {
    "﻿ICAO": "FYWH",
    "IATA": "WDH",
    "AIRPORT": "WINDHOEK HOSEA KUTAKO",
    "lat": -22.486666666666668,
    "lng": 17.4625,
    "DMS": "22°29′12″S 017°27′45″E",
    "MSALat": -22.476666666666667,
    "MSALng": 17.47,
    "MSADMS": "S22 28.6 E017 28.2",
    "altitude": 10000
  },
  {
    "﻿ICAO": "FZIC",
    "IATA": "FKI",
    "AIRPORT": "KISANGANI / BANGOKA",
    "lat": 0.4816666666666667,
    "lng": 25.338055555555556,
    "DMS": "00°28′54″N 025°20′17″E",
    "MSALat": 0.4966666666666667,
    "MSALng": 25.318333333333335,
    "MSADMS": "N00 29.8 E025 19.1",
    "altitude": 4000
  },
  {
    "﻿ICAO": "GBYD",
    "IATA": "BJL",
    "AIRPORT": "BANJUL",
    "lat": 13.337961111111111,
    "lng": -16.652205555555554,
    "DMS": "13°20′16.66″N 16°39′07.94″W",
    "MSALat": 13.338333333333333,
    "MSALng": -16.655,
    "MSADMS": "N13 20.3 W016 39.3",
    "altitude": 2500
  },
  {
    "﻿ICAO": "GCLP",
    "IATA": "LPA",
    "AIRPORT": "GRAN CANARIA / LAS PALMAS",
    "lat": 27.931944444444447,
    "lng": -15.386666666666667,
    "DMS": "27°55′55″N 015°23′12″W",
    "MSALat": 27.828333333333333,
    "MSALng": -15.431666666666667,
    "MSADMS": "N27 49.7 W015 25.9",
    "altitude": 8500
  },
  {
    "﻿ICAO": "GLRB",
    "IATA": "ROB",
    "AIRPORT": "MONROVIA",
    "lat": 6.233888888888889,
    "lng": -10.362222222222222,
    "DMS": "06°14′02″N 010°21′44″W",
    "MSALat": 6.24,
    "MSALng": -10.36,
    "MSADMS": "N06 14.4 W010 21.6",
    "altitude": 3100
  },
  {
    "﻿ICAO": "GMAD",
    "IATA": "AGA",
    "AIRPORT": "AGADIR AL MASSIRA",
    "lat": 30.325,
    "lng": -9.413055555555555,
    "DMS": "30°19′30″N 009°24′47″W",
    "MSALat": 30.321666666666665,
    "MSALng": -9.383333333333333,
    "MSADMS": "N30 19.3 W009 23.0",
    "altitude": 10000
  },
  {
    "﻿ICAO": "GMFF",
    "IATA": "FEZ",
    "AIRPORT": "FEZ",
    "lat": 33.92722222222222,
    "lng": -4.978055555555556,
    "DMS": "33°55′38″N 004°58′41″W",
    "MSALat": 33.92666666666667,
    "MSALng": -5.013333333333334,
    "MSADMS": "N33 55.6 W005 00.8",
    "altitude": 8900
  },
  {
    "﻿ICAO": "GMME",
    "IATA": "RBA",
    "AIRPORT": "RABAT",
    "lat": 34.05138888888889,
    "lng": -6.751388888888889,
    "DMS": "34°03′05″N 006°45′05″W",
    "MSALat": 34.17666666666667,
    "MSALng": -6.665,
    "MSADMS": "N34 10.6 W006 39.9",
    "altitude": 3500
  },
  {
    "﻿ICAO": "GMMN",
    "IATA": "CMN",
    "AIRPORT": "CASABLANCA",
    "lat": 33.367222222222225,
    "lng": -7.589722222222222,
    "DMS": "33°22′02″N 007°35′23″W",
    "MSALat": 33.278333333333336,
    "MSALng": -7.556666666666667,
    "MSADMS": "N33 16.7 W007 33.4",
    "altitude": 3800
  },
  {
    "﻿ICAO": "GMMX",
    "IATA": "RAK",
    "AIRPORT": "MARRAKECH",
    "lat": 31.606944444444444,
    "lng": -8.036388888888888,
    "DMS": "31°36′25″N 008°02′11″W",
    "MSALat": 31.613333333333333,
    "MSALng": -8.103333333333333,
    "MSADMS": "N31 36.8 W008 06.2",
    "altitude": 14000
  },
  {
    "﻿ICAO": "GOBD",
    "IATA": "DSS",
    "AIRPORT": "DAKAR",
    "lat": 14.671111111111111,
    "lng": -17.066944444444445,
    "DMS": "14°40′16″N 17°4′1″W",
    "MSALat": 14.645,
    "MSALng": -17.073333333333334,
    "MSADMS": "N14 38.7 W017 04.4",
    "altitude": 3000
  },
  {
    "﻿ICAO": "GQNO",
    "IATA": "NKC",
    "AIRPORT": "NOUAKCHOTT",
    "lat": 18.310000000000002,
    "lng": -15.969722222222222,
    "DMS": "18°18′36″N 015°58′11″W",
    "MSALat": 18.28,
    "MSALng": -15.951666666666666,
    "MSADMS": "N18 16.8 W015 57.1",
    "altitude": 2000
  },
  {
    "﻿ICAO": "GUCY",
    "IATA": "CKY",
    "AIRPORT": "CONAKRY",
    "lat": 9.576888888888888,
    "lng": -13.61196111111111,
    "DMS": "09°34′36.80″N 13°36′43.06″W",
    "MSALat": 9.568333333333333,
    "MSALng": -13.62,
    "MSADMS": "N09 34.1 W013 37.2",
    "altitude": 4500
  },
  {
    "﻿ICAO": "GVAC",
    "IATA": "SID",
    "AIRPORT": "SAL AMILCAR CABRAL",
    "lat": 16.7425,
    "lng": -22.948055555555555,
    "DMS": "16°44′33″N 022°56′53″W",
    "MSALat": 16.736666666666668,
    "MSALng": -22.951666666666668,
    "MSADMS": "N16 44.2 W022 57.1",
    "altitude": 2500
  },
  {
    "﻿ICAO": "HAAB",
    "IATA": "ADD",
    "AIRPORT": "ADDIS ABABA",
    "lat": 8.977777777777778,
    "lng": 38.79944444444444,
    "DMS": "08°58′40″N 38°47′58″E",
    "MSALat": 8.975,
    "MSALng": 38.8,
    "MSADMS": "N08 58.5 E038 48.0",
    "altitude": 14000
  },
  {
    "﻿ICAO": "HDAM",
    "IATA": "JIB",
    "AIRPORT": "DJIBOUTI",
    "lat": 11.546258333333332,
    "lng": 43.15920555555555,
    "DMS": "11°32′46.53″N 43°09′33.14″E",
    "MSALat": 11.548333333333334,
    "MSALng": 43.093333333333334,
    "MSADMS": "N11 32.9 E043 05.6",
    "altitude": 8100
  },
  {
    "﻿ICAO": "HEBA",
    "IATA": "HBE",
    "AIRPORT": "ALEXANDRIA BORG EL ARAB",
    "lat": 30.91777777777778,
    "lng": 29.69638888888889,
    "DMS": "30°55′04″N 29°41′47″E",
    "MSALat": 30.918333333333333,
    "MSALng": 29.695,
    "MSADMS": "N30 55.1 E029 41.7",
    "altitude": 1700
  },
  {
    "﻿ICAO": "HECA",
    "IATA": "CAI",
    "AIRPORT": "CAIRO",
    "lat": 30.121944444444445,
    "lng": 31.405555555555555,
    "DMS": "30°07′19″N 31°24′20″E",
    "MSALat": 30.091666666666665,
    "MSALng": 31.388333333333332,
    "MSADMS": "N30 05.5 E031 23.3",
    "altitude": 3500
  },
  {
    "﻿ICAO": "HEGN",
    "IATA": "HRG",
    "AIRPORT": "HURGHADA",
    "lat": 27.178055555555556,
    "lng": 33.799166666666665,
    "DMS": "27°10′41″N 33°47′57″E",
    "MSALat": 27.178333333333335,
    "MSALng": 33.79666666666667,
    "MSADMS": "N27 10.7 E033 47.8",
    "altitude": 9200
  },
  {
    "﻿ICAO": "HELX",
    "IATA": "LXR",
    "AIRPORT": "LUXOR",
    "lat": 25.670833333333334,
    "lng": 32.70638888888889,
    "DMS": "25°40′15″N 32°42′23″E",
    "MSALat": 25.75,
    "MSALng": 32.76833333333333,
    "MSADMS": "N25 45.0 E032 46.1",
    "altitude": 3800
  },
  {
    "﻿ICAO": "HESH",
    "IATA": "SSH",
    "AIRPORT": "SHARM EL SHEIKH",
    "lat": 27.97722222222222,
    "lng": 34.39472222222222,
    "DMS": "27°58′38″N 34°23′41″E",
    "MSALat": 27.998333333333335,
    "MSALng": 34.413333333333334,
    "MSADMS": "N27 59.9 E034 24.8",
    "altitude": 10100
  },
  {
    "﻿ICAO": "HESN",
    "IATA": "ASW",
    "AIRPORT": "ASWAN",
    "lat": 23.964166666666667,
    "lng": 32.819722222222225,
    "DMS": "23°57′51″N 32°49′11″E",
    "MSALat": 23.971666666666668,
    "MSALng": 32.81666666666667,
    "MSADMS": "N23 58.3 E032 49.0",
    "altitude": 3100
  },
  {
    "﻿ICAO": "HHAS",
    "IATA": "ASM",
    "AIRPORT": "ASMARA",
    "lat": 15.291852777777777,
    "lng": 38.910666666666664,
    "DMS": "15°17′30.67″N 38°54′38.40″E",
    "MSALat": 15.285,
    "MSALng": 38.901666666666664,
    "MSADMS": "N15 17.1 E038 54.1",
    "altitude": 11500
  },
  {
    "﻿ICAO": "HKEL",
    "IATA": "EDL",
    "AIRPORT": "ELDORET",
    "lat": 0.40444444444444444,
    "lng": 35.23888888888889,
    "DMS": "00°24′16″N 35°14′20″E",
    "MSALat": 0.4066666666666666,
    "MSALng": 35.23166666666667,
    "MSADMS": "N00 24.4 E035 13.9",
    "altitude": 10900
  },
  {
    "﻿ICAO": "HKJK",
    "IATA": "NBO",
    "AIRPORT": "NAIROBI",
    "lat": -1.3186111111111112,
    "lng": 36.92583333333333,
    "DMS": "01°19′07″S 36°55′33″E",
    "MSALat": -1.3,
    "MSALng": 36.955,
    "MSADMS": "S01 18.0 E036 57.3",
    "altitude": 9600
  },
  {
    "﻿ICAO": "HKMO",
    "IATA": "MBA",
    "AIRPORT": "MOMBASA",
    "lat": -4.04,
    "lng": 39.59,
    "DMS": "4.040000°S 39.59000°E",
    "MSALat": -3.9483333333333333,
    "MSALng": 39.64333333333333,
    "MSADMS": "S03 56.9 E039 38.6",
    "altitude": 2600
  },
  {
    "﻿ICAO": "HRYR",
    "IATA": "KGL",
    "AIRPORT": "KIGALI",
    "lat": -1.9663888888888887,
    "lng": 30.133055555555558,
    "DMS": "01°57′59″S 030°07′59″E",
    "MSALat": -1.9683333333333333,
    "MSALng": 30.148333333333333,
    "MSADMS": "S01 58.1 E030 08.9",
    "altitude": 9900
  },
  {
    "﻿ICAO": "HSPN",
    "IATA": "PZU",
    "AIRPORT": "PORT SUDAN",
    "lat": 19.433611111111112,
    "lng": 37.23416666666667,
    "DMS": "19°26′01″N 037°14′03″E",
    "MSALat": 19.421666666666667,
    "MSALng": 37.24166666666667,
    "MSADMS": "N19 25.3 E037 14.5",
    "altitude": 6200
  },
  {
    "﻿ICAO": "HSSJ",
    "IATA": "JUB",
    "AIRPORT": "JUBA",
    "lat": 4.871944444444445,
    "lng": 31.601111111111113,
    "DMS": "4°52′19″N 31°36′4″E",
    "MSALat": 4.876666666666667,
    "MSALng": 31.6,
    "MSADMS": "N04 52.6 E031 36.0",
    "altitude": 4800
  },
  {
    "﻿ICAO": "HSSS",
    "IATA": "KRT",
    "AIRPORT": "KHARTOUM",
    "lat": 15.589497222222223,
    "lng": 32.55316111111111,
    "DMS": "15°35′22.19″N 32°33′11.38″E"
  },
  {
    "﻿ICAO": "HTDA",
    "IATA": "DAR",
    "AIRPORT": "DAR ES SALAM",
    "lat": -6.878055555555556,
    "lng": 39.20277777777778,
    "DMS": "06°52′41″S 39°12′10″E",
    "MSALat": -6.888333333333334,
    "MSALng": 39.193333333333335,
    "MSADMS": "S06 53.3 E039 11.6",
    "altitude": 2300
  },
  {
    "﻿ICAO": "HTKJ",
    "IATA": "JRO",
    "AIRPORT": "KILAMANJARO",
    "lat": -3.4294444444444445,
    "lng": 37.074444444444445,
    "DMS": "03°25′46″S 37°04′28″E",
    "MSALat": -3.4283333333333332,
    "MSALng": 37.10666666666667,
    "MSADMS": "S03 25.7 E037 06.4",
    "altitude": 22000
  },
  {
    "﻿ICAO": "HTZA",
    "IATA": "ZNZ",
    "AIRPORT": "ZANIZBAR",
    "lat": -6.222222222222222,
    "lng": 39.225,
    "DMS": "6°13′20″S 39°13′30″E",
    "MSALat": -6.245,
    "MSALng": 39.22666666666667,
    "MSADMS": "S06 14.7 E039 13.6",
    "altitude": 1700
  },
  {
    "﻿ICAO": "HUEN",
    "IATA": "EBB",
    "AIRPORT": "ENTEBBE",
    "lat": 0.04472222222222222,
    "lng": 32.44305555555555,
    "DMS": "00°02′41″N 032°26′35″E",
    "MSALat": 0.05333333333333334,
    "MSALng": 32.43833333333333,
    "MSADMS": "N00 03.2 E032 26.3",
    "altitude": 6000
  },
  {
    "﻿ICAO": "KABQ",
    "IATA": "ABQ",
    "AIRPORT": "ALUQUERQUE",
    "lat": 35.03933333333333,
    "lng": -106.61077777777777,
    "DMS": "35°02′21.6″N 106°36′38.8″W",
    "MSALat": 35.04333333333334,
    "MSALng": -106.81666666666666,
    "MSADMS": "N35 02.6 W106 49.0",
    "altitude": 11900
  },
  {
    "﻿ICAO": "KATL",
    "IATA": "ATL",
    "AIRPORT": "ATLANTA HARTSFIELD",
    "lat": 33.63666666666666,
    "lng": -84.42805555555556,
    "DMS": "33°38′12″N 084°25′41″W",
    "MSALat": 33.62833333333333,
    "MSALng": -84.435,
    "MSADMS": "N33 37.7 W084 26.1",
    "altitude": 3100
  },
  {
    "﻿ICAO": "KAUS",
    "IATA": "AUS",
    "AIRPORT": "AUSTIN BERGSTROM",
    "lat": 30.194444444444446,
    "lng": -97.67,
    "DMS": "30°11′40″N 097°40′12″W",
    "MSALat": 30.378333333333334,
    "MSALng": -97.53,
    "MSADMS": "N30 22.7 W097 31.8",
    "altitude": 3100
  },
  {
    "﻿ICAO": "KBDL",
    "IATA": "BDL",
    "AIRPORT": "WINDSOR LOCK",
    "lat": 41.939166666666665,
    "lng": -72.68333333333334,
    "DMS": "41°56′21″N 072°41′00″W",
    "MSALat": 42.16166666666667,
    "MSALng": -72.71666666666667,
    "MSADMS": "N42 09.7 W072 43.0",
    "altitude": 3600
  },
  {
    "﻿ICAO": "KBGR",
    "IATA": "BGR",
    "AIRPORT": "BANGOR",
    "lat": 44.80722222222222,
    "lng": -68.82805555555555,
    "DMS": "44°48′26″N 068°49′41″W",
    "MSALat": 44.84166666666667,
    "MSALng": -68.87333333333333,
    "MSADMS": "N44 50.5 W068 52.4",
    "altitude": 3100
  },
  {
    "﻿ICAO": "KBIL",
    "IATA": "BIL",
    "AIRPORT": "BILLINGS",
    "lat": 45.80777777777777,
    "lng": -108.54277777777777,
    "DMS": "45°48′28″N 108°32′34″W",
    "MSALat": 45.80833333333333,
    "MSALng": -108.625,
    "MSADMS": "N45 48.5 W108 37.5",
    "altitude": 8300
  },
  {
    "﻿ICAO": "KBNA",
    "IATA": "BNA",
    "AIRPORT": "NASHVILLE INT",
    "lat": 36.126666666666665,
    "lng": -86.68194444444445,
    "DMS": "36°07′36″N 086°40′55″W",
    "MSALat": 36.13666666666666,
    "MSALng": -86.685,
    "MSADMS": "N36 08.2 W086 41.1",
    "altitude": 3100
  },
  {
    "﻿ICAO": "KBOI",
    "IATA": "BOI",
    "AIRPORT": "BOISE",
    "lat": 43.56444444444444,
    "lng": -116.22277777777778,
    "DMS": "43°33′52″N 116°13′22″W",
    "MSALat": 43.553333333333335,
    "MSALng": -116.19166666666666,
    "MSADMS": "N43 33.2 W116 11.5",
    "altitude": 9500
  },
  {
    "﻿ICAO": "KBOS",
    "IATA": "BOS",
    "AIRPORT": "BOSTON",
    "lat": 42.363055555555555,
    "lng": -71.00638888888889,
    "DMS": "42°21′47″N 071°00′23″W",
    "MSALat": 42.35666666666667,
    "MSALng": -70.99,
    "MSADMS": "N42 21.4 W070 59.4",
    "altitude": 2500
  },
  {
    "﻿ICAO": "KBUF",
    "IATA": "BUF",
    "AIRPORT": "BUFFALO NIAGARA",
    "lat": 42.940555555555555,
    "lng": -78.73222222222222,
    "DMS": "42°56′26″N 078°43′56″W",
    "MSALat": 42.873333333333335,
    "MSALng": -78.81666666666666,
    "MSADMS": "N42 52.4 W078 49.0",
    "altitude": 3900
  },
  {
    "﻿ICAO": "KBWI",
    "IATA": "BWI",
    "AIRPORT": "BALTIMORE",
    "lat": 39.17527777777777,
    "lng": -76.66833333333334,
    "DMS": "39°10′31″N 076°40′06″W",
    "MSALat": 39.17166666666667,
    "MSALng": -76.66166666666666,
    "MSADMS": "N39 10.3 W076 39.7",
    "altitude": 2600
  },
  {
    "﻿ICAO": "KCLE",
    "IATA": "CLE",
    "AIRPORT": "CLEVELAND",
    "lat": 41.41166666666666,
    "lng": -81.84972222222221,
    "DMS": "41°24′42″N 081°50′59″W",
    "MSALat": 41.358333333333334,
    "MSALng": -82.16166666666666,
    "MSADMS": "N41 21.5 W082 09.7",
    "altitude": 3100
  },
  {
    "﻿ICAO": "KCLT",
    "IATA": "CLT",
    "AIRPORT": "CHARLOTTE DOUGLAS",
    "lat": 35.21388888888889,
    "lng": -80.94305555555556,
    "DMS": "35°12′50″N 080°56′35″W",
    "MSALat": 35.19,
    "MSALng": -80.95166666666667,
    "MSADMS": "N35 11.4 W080 57.1",
    "altitude": 3800
  },
  {
    "﻿ICAO": "KCPR",
    "IATA": "CPR",
    "AIRPORT": "CASPER",
    "lat": 42.908055555555556,
    "lng": -106.46444444444445,
    "DMS": "42°54′29″N 106°27′52″W",
    "MSALat": 43.09166666666667,
    "MSALng": -106.27666666666667,
    "MSADMS": "N43 05.5 W106 16.6",
    "altitude": 9500
  },
  {
    "﻿ICAO": "KCVG",
    "IATA": "CVG",
    "AIRPORT": "CONVINGTON CINCINNATI",
    "lat": 39.04888888888889,
    "lng": -84.66777777777779,
    "DMS": "39°02′56″N 084°40′04″W",
    "MSALat": 39.016666666666666,
    "MSALng": -84.70333333333333,
    "MSADMS": "N39 01.0 W084 42.2",
    "altitude": 2900
  },
  {
    "﻿ICAO": "KDAL",
    "IATA": "DAL",
    "AIRPORT": "DALLAS LOVE",
    "lat": 32.84722222222222,
    "lng": -96.85166666666666,
    "DMS": "32°50′50″N 096°51′06″W",
    "MSALat": 32.89,
    "MSALng": -96.90333333333334,
    "MSADMS": "N32 53.4 W096 54.2",
    "altitude": 3600
  },
  {
    "﻿ICAO": "KDEN",
    "IATA": "DEN",
    "AIRPORT": "DENVER",
    "lat": 39.861666666666665,
    "lng": -104.67305555555556,
    "DMS": "39°51′42″N 104°40′23″W",
    "MSALat": 39.81333333333333,
    "MSALng": -104.66,
    "MSADMS": "N39 48.8 W104 39.6",
    "altitude": 9200
  },
  {
    "﻿ICAO": "KDFW",
    "IATA": "DFW",
    "AIRPORT": "DALLAS FORTWORTH",
    "lat": 32.89694444444444,
    "lng": -97.03805555555556,
    "DMS": "32°53′49″N 097°02′17″W",
    "MSALat": 32.86833333333333,
    "MSALng": -97.04,
    "MSADMS": "N32 52.1 W097 02.4",
    "altitude": 3600
  },
  {
    "﻿ICAO": "KDTW",
    "IATA": "DTW",
    "AIRPORT": "DETROIT",
    "lat": 42.212500000000006,
    "lng": -83.35333333333332,
    "DMS": "42°12′45″N 083°21′12″W",
    "MSALat": 42.21333333333333,
    "MSALng": -83.36666666666666,
    "MSADMS": "N42 12.8 W083 22.0",
    "altitude": 2800
  },
  {
    "﻿ICAO": "KEWR",
    "IATA": "EWR",
    "AIRPORT": "NEWARK",
    "lat": 40.692499999999995,
    "lng": -74.16861111111112,
    "DMS": "40°41′33″N 074°10′07″W",
    "MSALat": 40.848333333333336,
    "MSALng": -74.06166666666667,
    "MSADMS": "N40 50.9 W074 03.7",
    "altitude": 3000
  },
  {
    "﻿ICAO": "KFLL",
    "IATA": "FLL",
    "AIRPORT": "FORT LAUDERDALE",
    "lat": 26.072499999999998,
    "lng": -80.15277777777779,
    "DMS": "26°04′21″N 080°09′10″W",
    "MSALat": 26.073333333333334,
    "MSALng": -80.16666666666667,
    "MSADMS": "N26 04.4 W080 10.0",
    "altitude": 2100
  },
  {
    "﻿ICAO": "KGCN",
    "IATA": "GCN",
    "AIRPORT": "GRAND CANYON",
    "lat": 35.952222222222225,
    "lng": -112.14694444444446,
    "DMS": "35°57′08″N 112°08′49″W",
    "MSALat": 35.96,
    "MSALng": -112.14666666666666,
    "MSADMS": "N35 57.6 W112 08.8",
    "altitude": 10500
  },
  {
    "﻿ICAO": "KGEG",
    "IATA": "GEG",
    "AIRPORT": "SPOKANE",
    "lat": 47.62,
    "lng": -117.53388888888888,
    "DMS": "47°37′12″N 117°32′02″W",
    "MSALat": 47.565,
    "MSALng": -117.62666666666667,
    "MSADMS": "N47 33.9 W117 37.6",
    "altitude": 6500
  },
  {
    "﻿ICAO": "KIAD",
    "IATA": "IAD",
    "AIRPORT": "WASHINGTON",
    "lat": 38.94444444444444,
    "lng": -77.45583333333333,
    "DMS": "38°56′40″N 077°27′21″W",
    "MSALat": 38.935,
    "MSALng": -77.46666666666667,
    "MSADMS": "N38 56.1 W077 28.0",
    "altitude": 3400
  },
  {
    "﻿ICAO": "KIAG",
    "IATA": "IAG",
    "AIRPORT": "NIAGARA FALLS",
    "lat": 43.10722222222223,
    "lng": -78.94611111111111,
    "DMS": "43°06′26″N 078°56′46″W",
    "MSALat": 43.108333333333334,
    "MSALng": -78.83833333333334,
    "MSADMS": "N43 06.5 W078 50.3",
    "altitude": 3700
  },
  {
    "﻿ICAO": "KIAH",
    "IATA": "IAH",
    "AIRPORT": "HOUSTON",
    "lat": 29.984444444444446,
    "lng": -95.34138888888889,
    "DMS": "29°59′04″N 095°20′29″W",
    "MSALat": 29.956666666666667,
    "MSALng": -95.345,
    "MSADMS": "N29 57.4 W095 20.7",
    "altitude": 3100
  },
  {
    "﻿ICAO": "KJFK",
    "IATA": "JFK",
    "AIRPORT": "NEW YORK",
    "lat": 40.63972222222222,
    "lng": -73.77888888888889,
    "DMS": "40°38′23″N 073°46′44″W",
    "MSALat": 40.63333333333333,
    "MSALng": -73.77166666666666,
    "MSADMS": "N40 38.0 W073 46.3",
    "altitude": 2900
  },
  {
    "﻿ICAO": "KLAS",
    "IATA": "LAS",
    "AIRPORT": "LAS VEGAS",
    "lat": 36.080000000000005,
    "lng": -115.15222222222222,
    "DMS": "36°04′48″N 115°09′08″W",
    "MSALat": 36.08,
    "MSALng": -115.16,
    "MSADMS": "N36 04.8 W115 09.6",
    "altitude": 13200
  },
  {
    "﻿ICAO": "KLAX",
    "IATA": "LAX",
    "AIRPORT": "LOS ANGELES",
    "lat": 33.942499999999995,
    "lng": -118.40805555555556,
    "DMS": "33°56′33″N 118°24′29″W",
    "MSALat": 33.93333333333333,
    "MSALng": -118.43166666666667,
    "MSADMS": "N33 56.0 W118 25.9",
    "altitude": 7700
  },
  {
    "﻿ICAO": "KLCK",
    "IATA": "LCK",
    "AIRPORT": "COLUMBUS RICKENBACKER",
    "lat": 39.81388888888888,
    "lng": -82.92777777777778,
    "DMS": "39°48′50″N 082°55′40″W",
    "MSALat": 39.74333333333333,
    "MSALng": -83.02,
    "MSADMS": "N39 44.6 W083 01.2",
    "altitude": 3100
  },
  {
    "﻿ICAO": "KLGB",
    "IATA": "LGB",
    "AIRPORT": "LONG BEACH",
    "lat": 33.81777777777778,
    "lng": -118.15166666666667,
    "DMS": "33°49′04″N 118°09′06″W",
    "MSALat": 33.78333333333333,
    "MSALng": -118.055,
    "MSADMS": "N33 47.0 W118 03.3",
    "altitude": 7700
  },
  {
    "﻿ICAO": "KMCI",
    "IATA": "MCI",
    "AIRPORT": "KANSAS CITY",
    "lat": 39.2975,
    "lng": -94.71388888888889,
    "DMS": "39°17′51″N 94°42′50″W",
    "MSALat": 39.285,
    "MSALng": -94.73666666666666,
    "MSADMS": "N39 17.1 W094 44.2",
    "altitude": 3100
  },
  {
    "﻿ICAO": "KMCO",
    "IATA": "MCO",
    "AIRPORT": "ORLANDO",
    "lat": 28.429444444444446,
    "lng": -81.30888888888889,
    "DMS": "28°25′46″N 81°18′32″W",
    "MSALat": 28.543333333333333,
    "MSALng": -81.335,
    "MSADMS": "N28 32.6 W081 20.1",
    "altitude": 3000
  },
  {
    "﻿ICAO": "KMEM",
    "IATA": "MEM",
    "AIRPORT": "MEMPHIS INTL",
    "lat": 35.0425,
    "lng": -89.97666666666667,
    "DMS": "35°02′33″N 089°58′36″W",
    "MSALat": 35.015,
    "MSALng": -89.98333333333333,
    "MSADMS": "N35 00.9 W089 59.0",
    "altitude": 2500
  },
  {
    "﻿ICAO": "KMFR",
    "IATA": "MFR",
    "AIRPORT": "MEDFORD",
    "lat": 42.37416666666667,
    "lng": -122.8736111111111,
    "DMS": "42°22′27″N 122°52′25″W",
    "MSALat": 42.48,
    "MSALng": -122.91333333333333,
    "MSADMS": "N42 28.8 W122 54.8",
    "altitude": 10700
  },
  {
    "﻿ICAO": "KMIA",
    "IATA": "MIA",
    "AIRPORT": "MIAMI",
    "lat": 25.793333333333337,
    "lng": -80.29055555555556,
    "DMS": "25°47′36″N 080°17′26″W",
    "MSALat": 25.8,
    "MSALng": -80.34833333333333,
    "MSADMS": "N25 48.0 W080 20.9",
    "altitude": 2900
  },
  {
    "﻿ICAO": "KMKE",
    "IATA": "MKE",
    "AIRPORT": "MILWAUKEE",
    "lat": 42.947222222222216,
    "lng": -87.89666666666668,
    "DMS": "42°56′50″N 087°53′48″W",
    "MSALat": 43.11666666666667,
    "MSALng": -88.285,
    "MSADMS": "N43 07.0 W088 17.1",
    "altitude": 2900
  },
  {
    "﻿ICAO": "KMSP",
    "IATA": "MSP",
    "AIRPORT": "MINNEAPOLIS ST PAUL",
    "lat": 44.88194444444444,
    "lng": -93.22166666666666,
    "DMS": "44°52′55″N 093°13′18″W",
    "MSALat": 44.89666666666667,
    "MSALng": -93.23666666666666,
    "MSADMS": "N44 53.8 W093 14.2",
    "altitude": 3500
  },
  {
    "﻿ICAO": "KMSY",
    "IATA": "MSY",
    "AIRPORT": "NEW ORLEANS",
    "lat": 29.993333333333336,
    "lng": -90.25805555555556,
    "DMS": "29°59′36″N 090°15′29″W",
    "MSALat": 29.85,
    "MSALng": -90.00333333333333,
    "MSADMS": "N29 51.0 W090 00.2",
    "altitude": 2100
  },
  {
    "﻿ICAO": "KMWH",
    "IATA": "MWH",
    "AIRPORT": "MOSES LAKE",
    "lat": 47.20861111111111,
    "lng": -119.31916666666666,
    "DMS": "47°12′31″N 119°19′09″W",
    "MSALat": 47.211666666666666,
    "MSALng": -119.31666666666666,
    "MSADMS": "N47 12.7 W119 19.0",
    "altitude": 4100
  },
  {
    "﻿ICAO": "KOAK",
    "IATA": "OAK",
    "AIRPORT": "OAKLAND",
    "lat": 37.72138888888889,
    "lng": -122.22083333333333,
    "DMS": "37°43′17″N 122°13′15″W",
    "MSALat": 37.72666666666667,
    "MSALng": -122.22333333333333,
    "MSADMS": "N37 43.6 W122 13.4",
    "altitude": 5100
  },
  {
    "﻿ICAO": "KOKC",
    "IATA": "OKC",
    "AIRPORT": "OKLAHOMA CITY",
    "lat": 35.393055555555556,
    "lng": -97.60083333333333,
    "DMS": "35°23′35″N 097°36′03″W",
    "MSALat": 35.358333333333334,
    "MSALng": -97.61,
    "MSADMS": "N35 21.5 W097 36.6",
    "altitude": 3800
  },
  {
    "﻿ICAO": "KONT",
    "IATA": "ONT",
    "AIRPORT": "ONTARIO",
    "lat": 34.05611111111111,
    "lng": -117.60111111111111,
    "DMS": "34°03′22″N 117°36′04″W",
    "MSALat": 33.91833333333334,
    "MSALng": -117.53,
    "MSADMS": "N33 55.1 W117 31.8",
    "altitude": 11300
  },
  {
    "﻿ICAO": "KORD",
    "IATA": "ORD",
    "AIRPORT": "CHICAGO",
    "lat": 41.978611111111114,
    "lng": -87.90472222222223,
    "DMS": "41°58′43″N 87°54′17″W",
    "MSALat": 41.975,
    "MSALng": -87.90666666666667,
    "MSADMS": "N41 58.5 W087 54.4",
    "altitude": 3400
  },
  {
    "﻿ICAO": "KORF",
    "IATA": "ORF",
    "AIRPORT": "NORFOLK",
    "lat": 36.89472222222222,
    "lng": -76.20111111111112,
    "DMS": "36°53′41″N 076°12′04″W",
    "MSALat": 36.891666666666666,
    "MSALng": -76.2,
    "MSADMS": "N36 53.5 W076 12.0",
    "altitude": 2300
  },
  {
    "﻿ICAO": "KPAE",
    "IATA": "PAE",
    "AIRPORT": "EVERETT",
    "lat": 47.90611111111111,
    "lng": -122.28138888888888,
    "DMS": "47°54′22″N 122°16′53″W",
    "MSALat": 47.92,
    "MSALng": -122.27833333333334,
    "MSADMS": "N47 55.2 W122 16.7",
    "altitude": 7900
  },
  {
    "﻿ICAO": "KPBI",
    "IATA": "PBI",
    "AIRPORT": "WEST PALM BEACH",
    "lat": 26.68305555555556,
    "lng": -80.09555555555555,
    "DMS": "26°40′59″N 80°05′44″W",
    "MSALat": 26.68,
    "MSALng": -80.08666666666667,
    "MSADMS": "N26 40.8 W080 05.2",
    "altitude": 2600
  },
  {
    "﻿ICAO": "KPDX",
    "IATA": "PDX",
    "AIRPORT": "PORTLAND",
    "lat": 45.58861111111111,
    "lng": -122.5975,
    "DMS": "45°35′19″N 122°35′51″W",
    "MSALat": 45.748333333333335,
    "MSALng": -122.59166666666667,
    "MSADMS": "N45 44.9 W122 35.5",
    "altitude": 6000
  },
  {
    "﻿ICAO": "KPHL",
    "IATA": "PHL",
    "AIRPORT": "PHILADELPHIA",
    "lat": 39.871944444444445,
    "lng": -75.24111111111111,
    "DMS": "39°52′19″N 075°14′28″W",
    "MSALat": 39.63666666666667,
    "MSALng": -75.30333333333333,
    "MSADMS": "N39 38.2 W075 18.2",
    "altitude": 2600
  },
  {
    "﻿ICAO": "KPHX",
    "IATA": "PHX",
    "AIRPORT": "PHOENIX",
    "lat": 33.43416666666666,
    "lng": -112.01166666666667,
    "DMS": "33°26′03″N 112°00′42″W",
    "MSALat": 33.43333333333333,
    "MSALng": -111.97,
    "MSADMS": "N33 26.0 W111 58.2",
    "altitude": 6200
  },
  {
    "﻿ICAO": "KPIH",
    "IATA": "PIH",
    "AIRPORT": "POCATELLO",
    "lat": 42.90972222222222,
    "lng": -112.59583333333333,
    "DMS": "42°54′35″N 112°35′45″W",
    "MSALat": 42.87,
    "MSALng": -112.65166666666667,
    "MSADMS": "N42 52.2 W112 39.1",
    "altitude": 10700
  },
  {
    "﻿ICAO": "KPIT",
    "IATA": "PIT",
    "AIRPORT": "PITTSBURGH",
    "lat": 40.496,
    "lng": -80.246,
    "DMS": "40.496°N 80.246°W",
    "MSALat": 40.278333333333336,
    "MSALng": -80.04166666666667,
    "MSADMS": "N40 16.7 W080 02.5",
    "altitude": 3800
  },
  {
    "﻿ICAO": "KRDU",
    "IATA": "RDU",
    "AIRPORT": "RALEIGH / DURHAM",
    "lat": 35.87777777777778,
    "lng": -78.7875,
    "DMS": "35°52′40″N 078°47′15″W",
    "MSALat": 35.873333333333335,
    "MSALng": -78.78333333333333,
    "MSADMS": "N35 52.4 W078 47.0",
    "altitude": 3400
  },
  {
    "﻿ICAO": "KRIC",
    "IATA": "RIC",
    "AIRPORT": "RICHMOND",
    "lat": 37.505,
    "lng": -77.31944444444444,
    "DMS": "37°30′18″N 077°19′10″W",
    "MSALat": 37.501666666666665,
    "MSALng": -77.32,
    "MSADMS": "N37 30.1 W077 19.2",
    "altitude": 2600
  },
  {
    "﻿ICAO": "KRNO",
    "IATA": "RNO",
    "AIRPORT": "RENO",
    "lat": 39.49916666666667,
    "lng": -119.76805555555555,
    "DMS": "39°29′57″N 119°46′05″W",
    "MSALat": 39.531666666666666,
    "MSALng": -119.65666666666667,
    "MSADMS": "N39 31.9 W119 39.4",
    "altitude": 12000
  },
  {
    "﻿ICAO": "KRSW",
    "IATA": "RSW",
    "AIRPORT": "FORT MAYERS",
    "lat": 26.53611111111111,
    "lng": -81.75527777777778,
    "DMS": "26°32′10″N 081°45′19″W",
    "MSALat": 26.53,
    "MSALng": -81.775,
    "MSADMS": "N26 31.8 W081 46.5",
    "altitude": 2600
  },
  {
    "﻿ICAO": "RCTP",
    "IATA": "TPE",
    "AIRPORT": "TAIPEI",
    "lat": 25.07638888888889,
    "lng": 121.2238888888889,
    "DMS": "25°4′35″N 121°13′26″E",
    "MSALat": 25.08,
    "MSALng": 121.23166666666667,
    "MSADMS": "N25 04.8 E121 13.9",
    "altitude": 9000
  },
  {
    "﻿ICAO": "KSAN",
    "IATA": "SAN",
    "AIRPORT": "SAN DIEGO",
    "lat": 32.73361111111111,
    "lng": -117.18972222222223,
    "DMS": "32°44′01″N 117°11′23″W",
    "MSALat": 32.781666666666666,
    "MSALng": -117.225,
    "MSADMS": "N32 46.9 W117 13.5",
    "altitude": 5400
  },
  {
    "﻿ICAO": "KSAT",
    "IATA": "SAT",
    "AIRPORT": "SAN ANTONIO",
    "lat": 29.526666666666667,
    "lng": -98.47194444444445,
    "DMS": "29°31′36″N 098°28′19″W",
    "MSALat": 29.643333333333334,
    "MSALng": -98.46166666666667,
    "MSADMS": "N29 38.6 W098 27.7",
    "altitude": 4100
  },
  {
    "﻿ICAO": "KSDF",
    "IATA": "SDF",
    "AIRPORT": "LOUISVILLE",
    "lat": 38.174166666666665,
    "lng": -85.7363888888889,
    "DMS": "38°10′27″N 085°44′11″W",
    "MSALat": 38.10333333333333,
    "MSALng": -85.57666666666667,
    "MSADMS": "N38 06.2 W085 34.6",
    "altitude": 3600
  },
  {
    "﻿ICAO": "KSEA",
    "IATA": "SEA",
    "AIRPORT": "SEATTLE",
    "lat": 47.44888888888889,
    "lng": -122.30944444444444,
    "DMS": "47°26′56″N 122°18′34″W",
    "MSALat": 47.435,
    "MSALng": -122.31,
    "MSADMS": "N47 26.1 W122 18.6",
    "altitude": 6400
  },
  {
    "﻿ICAO": "KSFO",
    "IATA": "SFO",
    "AIRPORT": "SAN FRANCISCO",
    "lat": 37.61888888888889,
    "lng": -122.375,
    "DMS": "37°37′08″N 122°22′30″W",
    "MSALat": 37.62,
    "MSALng": -122.37333333333333,
    "MSADMS": "N37 37.2 W122 22.4",
    "altitude": 5100
  },
  {
    "﻿ICAO": "KSJC",
    "IATA": "SJC",
    "AIRPORT": "SAN JOSE",
    "lat": 37.36277777777778,
    "lng": -121.92916666666667,
    "DMS": "37°21′46″N 121°55′45″W",
    "MSALat": 37.375,
    "MSALng": -121.945,
    "MSADMS": "N37 22.5 W121 56.7",
    "altitude": 5600
  },
  {
    "﻿ICAO": "KSLC",
    "IATA": "SLC",
    "AIRPORT": "SALT LAKE CITY",
    "lat": 40.788333333333334,
    "lng": -111.97777777777777,
    "DMS": "40°47′18″N 111°58′40″W",
    "MSALat": 40.85,
    "MSALng": -111.98166666666667,
    "MSADMS": "N40 51.0 W111 58.9",
    "altitude": 12700
  },
  {
    "﻿ICAO": "KSMF",
    "IATA": "SMF",
    "AIRPORT": "SACRAMENTO",
    "lat": 38.69555555555555,
    "lng": -121.59083333333332,
    "DMS": "38°41′44″N 121°35′27″W",
    "MSALat": 38.443333333333335,
    "MSALng": -121.55166666666666,
    "MSADMS": "N38 26.6 W121 33.1",
    "altitude": 4100
  },
  {
    "﻿ICAO": "KSTL",
    "IATA": "STL",
    "AIRPORT": "ST. LOUIS",
    "lat": 38.74722222222222,
    "lng": -90.36138888888888,
    "DMS": "38°44′50″N 090°21′41″W",
    "MSALat": 38.86,
    "MSALng": -90.48166666666667,
    "MSADMS": "N38 51.6 W090 28.9",
    "altitude": 2800
  },
  {
    "﻿ICAO": "KSWF",
    "IATA": "SWF",
    "AIRPORT": "NEWBURGH",
    "lat": 41.50416666666667,
    "lng": -74.10472222222222,
    "DMS": "41°30′15″N 074°06′17″W",
    "MSALat": 41.665,
    "MSALng": -73.82166666666667,
    "MSADMS": "N41 39.9 W073 49.3",
    "altitude": 4400
  },
  {
    "﻿ICAO": "KTPA",
    "IATA": "TPA",
    "AIRPORT": "TAMPA",
    "lat": 27.975555555555555,
    "lng": -82.53333333333333,
    "DMS": "27°58′32″N 082°32′0″W",
    "MSALat": 27.908333333333335,
    "MSALng": -82.685,
    "MSADMS": "N27 54.5 W082 41.1",
    "altitude": 2700
  },
  {
    "﻿ICAO": "KTUL",
    "IATA": "TUL",
    "AIRPORT": "TULSA",
    "lat": 36.19833333333333,
    "lng": -95.88805555555557,
    "DMS": "36°11′54″N 095°53′17″W",
    "MSALat": 36.196666666666665,
    "MSALng": -95.78833333333333,
    "MSADMS": "N36 11.8 W095 47.3",
    "altitude": 3600
  },
  {
    "﻿ICAO": "LBBG",
    "IATA": "BOJ",
    "AIRPORT": "BURGAS",
    "lat": 42.57027777777778,
    "lng": 27.51527777777778,
    "DMS": "42°34′13″N 027°30′55″E",
    "MSALat": 42.586666666666666,
    "MSALng": 27.538333333333334,
    "MSADMS": "N42 35.2 E027 32.3",
    "altitude": 4000
  },
  {
    "﻿ICAO": "LBSF",
    "IATA": "SOF",
    "AIRPORT": "SOFIA",
    "lat": 42.69499999999999,
    "lng": 23.40833333333333,
    "DMS": "42°41′42″N 023°24′30″E",
    "MSALat": 42.69833333333333,
    "MSALng": 23.39,
    "MSADMS": "N42 41.9 E023 23.4",
    "altitude": 10600
  },
  {
    "﻿ICAO": "LBWN",
    "IATA": "VAR",
    "AIRPORT": "VARNA",
    "lat": 43.231944444444444,
    "lng": 27.825277777777778,
    "DMS": "43°13′55″N 27°49′31″E",
    "MSALat": 43.23166666666667,
    "MSALng": 27.816666666666666,
    "MSADMS": "N43 13.9 E027 49.0",
    "altitude": 4000
  },
  {
    "﻿ICAO": "LCLK",
    "IATA": "LCA",
    "AIRPORT": "LARNACA",
    "lat": 34.87888888888889,
    "lng": 33.63027777777778,
    "DMS": "34°52′44″N 033°37′49″E",
    "MSALat": 34.82,
    "MSALng": 33.555,
    "MSADMS": "N34 49.2 E033 33.3",
    "altitude": 7300
  },
  {
    "﻿ICAO": "LCPH",
    "IATA": "PFO",
    "AIRPORT": "PAFOS",
    "lat": 34.718333333333334,
    "lng": 32.485,
    "DMS": "34°43′06″N 32°29′06″E",
    "MSALat": 34.711666666666666,
    "MSALng": 32.505,
    "MSADMS": "N34 42.7 E032 30.3",
    "altitude": 4000
  },
  {
    "﻿ICAO": "LDZA",
    "IATA": "ZAG",
    "AIRPORT": "ZAGREB",
    "lat": 45.74305555555556,
    "lng": 16.06888888888889,
    "DMS": "45°44′35″N 016°04′08″E",
    "MSALat": 45.895,
    "MSALng": 16.306666666666665,
    "MSADMS": "N45 53.7 E016 18.4",
    "altitude": 5100
  },
  {
    "﻿ICAO": "LEAL",
    "IATA": "ALC",
    "AIRPORT": "ALICANTE",
    "lat": 38.282222222222224,
    "lng": -0.5580555555555556,
    "DMS": "38°16′56″N 00°33′29″W",
    "MSALat": 38.26833333333333,
    "MSALng": -0.5700000000000001,
    "MSADMS": "N38 16.1 W000 34.2",
    "altitude": 6900
  },
  {
    "﻿ICAO": "LEBL",
    "IATA": "BCN",
    "AIRPORT": "BARCELONA",
    "lat": 41.29694444444444,
    "lng": 2.0783333333333336,
    "DMS": "41°17′49″N 002°04′42″E",
    "MSALat": 41.306666666666665,
    "MSALng": 2.1083333333333334,
    "MSADMS": "N41 18.4 E002 06.5",
    "altitude": 6500
  },
  {
    "﻿ICAO": "LEGE",
    "IATA": "GRO",
    "AIRPORT": "GIRONA",
    "lat": 41.90083333333333,
    "lng": 2.7605555555555554,
    "DMS": "41°54′03″N 002°45′38″E",
    "MSALat": 41.931666666666665,
    "MSALng": 2.7716666666666665,
    "MSADMS": "N41 55.9 E002 46.3",
    "altitude": 9600
  },
  {
    "﻿ICAO": "LEIB",
    "IATA": "IBZ",
    "AIRPORT": "IBIZA",
    "lat": 38.87277777777778,
    "lng": 1.3758333333333335,
    "DMS": "38°52′22″N 01°22′33″E",
    "MSALat": 38.86833333333333,
    "MSALng": 1.3666666666666667,
    "MSADMS": "N38 52.1 E001 22.0",
    "altitude": 2800
  },
  {
    "﻿ICAO": "LEMD",
    "IATA": "MAD",
    "AIRPORT": "MADRID",
    "lat": 40.47222222222222,
    "lng": -3.560833333333333,
    "DMS": "40°28′20″N 003°33′39″W",
    "MSALat": 40.468333333333334,
    "MSALng": -3.5583333333333336,
    "MSADMS": "N40 28.1 W003 33.5",
    "altitude": 10000
  },
  {
    "﻿ICAO": "LEMG",
    "IATA": "AGP",
    "AIRPORT": "MALAGA",
    "lat": 36.675,
    "lng": -4.4991666666666665,
    "DMS": "36°40′30″N 004°29′57″W",
    "MSALat": 36.678333333333335,
    "MSALng": -4.506666666666667,
    "MSADMS": "N36 40.7 W004 30.4",
    "altitude": 9000
  },
  {
    "﻿ICAO": "LEPA",
    "IATA": "PMI",
    "AIRPORT": "PALMA DE MALLORCA",
    "lat": 39.55166666666666,
    "lng": 2.738888888888889,
    "DMS": "39°33′06″N 002°44′20″E",
    "MSALat": 39.565,
    "MSALng": 2.7466666666666666,
    "MSADMS": "N39 33.9 E002 44.8",
    "altitude": 7000
  },
  {
    "﻿ICAO": "LEST",
    "IATA": "SCQ",
    "AIRPORT": "SANTIAGO DE COMPOSTE",
    "lat": 42.896388888888886,
    "lng": -8.415277777777778,
    "DMS": "42°53′47″N 08°24′55″W",
    "MSALat": 42.92666666666667,
    "MSALng": -8.425,
    "MSADMS": "N42 55.6 W008 25.5",
    "altitude": 5500
  },
  {
    "﻿ICAO": "LEVC",
    "IATA": "VLC",
    "AIRPORT": "VALENCIA",
    "lat": 39.489444444444445,
    "lng": -0.4816666666666667,
    "DMS": "39°29′22″N 00°28′54″W",
    "MSALat": 39.485,
    "MSALng": -0.48333333333333334,
    "MSADMS": "N39 29.1 W000 29.0",
    "altitude": 6800
  },
  {
    "﻿ICAO": "LEZG",
    "IATA": "ZAZ",
    "AIRPORT": "ZARAGOZA",
    "lat": 41.66611111111111,
    "lng": -1.0416666666666667,
    "DMS": "41°39′58″N 01°02′30″W",
    "MSALat": 41.65833333333333,
    "MSALng": -1.0316666666666667,
    "MSADMS": "N41 39.5 W001 01.9",
    "altitude": 6900
  },
  {
    "﻿ICAO": "LFBD",
    "IATA": "BOD",
    "AIRPORT": "BORDEAUX",
    "lat": 44.82833333333333,
    "lng": -0.7155555555555555,
    "DMS": "44°49′42″N 000°42′56″W",
    "MSALat": 44.82666666666667,
    "MSALng": -0.7216666666666666,
    "MSADMS": "N44 49.6 W000 43.3",
    "altitude": 2100
  },
  {
    "﻿ICAO": "LFBO",
    "IATA": "TLS",
    "AIRPORT": "TOULOUSE",
    "lat": 43.635,
    "lng": 1.3677777777777778,
    "DMS": "43°38′06″N 001°22′04″E",
    "MSALat": 43.681666666666665,
    "MSALng": 1.31,
    "MSADMS": "N43 40.9 E001 18.6",
    "altitude": 3000
  },
  {
    "﻿ICAO": "LFLL",
    "IATA": "LYS",
    "AIRPORT": "LYON",
    "lat": 45.72555555555556,
    "lng": 5.0811111111111105,
    "DMS": "45°43′32″N 005°04′52″E",
    "MSALat": 45.745,
    "MSALng": 5.09,
    "MSADMS": "N45 44.7 E005 05.4",
    "altitude": 6000
  },
  {
    "﻿ICAO": "LFMN",
    "IATA": "NCE",
    "AIRPORT": "NICE",
    "lat": 43.665277777777774,
    "lng": 7.215,
    "DMS": "43°39′55″N 007°12′54″E",
    "MSALat": 43.59,
    "MSALng": 7.128333333333333,
    "MSADMS": "N43 35.4 E007 07.7",
    "altitude": 10700
  },
  {
    "﻿ICAO": "LFPG",
    "IATA": "CDG",
    "AIRPORT": "PARIS CDG",
    "lat": 49.00972222222222,
    "lng": 2.5477777777777777,
    "DMS": "49°00′35″N 002°32′52″E",
    "MSALat": 49.01,
    "MSALng": 2.5483333333333333,
    "MSADMS": "N49 00.6 E002 32.9",
    "altitude": 3200
  },
  {
    "﻿ICAO": "LFPO",
    "IATA": "ORY",
    "AIRPORT": "PARIS ORLY",
    "lat": 48.723333333333336,
    "lng": 2.3794444444444447,
    "DMS": "48°43′24″N 02°22′46″E",
    "MSALat": 48.723333333333336,
    "MSALng": 2.38,
    "MSADMS": "N48 43.4 E002 22.8",
    "altitude": 3200
  },
  {
    "﻿ICAO": "LFQQ",
    "IATA": "LIL",
    "AIRPORT": "LILLE",
    "lat": 50.56333333333333,
    "lng": 3.0869444444444447,
    "DMS": "50°33′48″N 003°05′13″E",
    "MSALat": 50.56166666666667,
    "MSALng": 3.09,
    "MSADMS": "N50 33.7 E003 05.4",
    "altitude": 2700
  },
  {
    "﻿ICAO": "LFRB",
    "IATA": "BES",
    "AIRPORT": "BREST",
    "lat": 48.447222222222216,
    "lng": -4.421666666666667,
    "DMS": "48°26′50″N 004°25′18″W",
    "MSALat": 48.47833333333333,
    "MSALng": -4.285,
    "MSADMS": "N48 28.7 W004 17.1",
    "altitude": 3000
  },
  {
    "﻿ICAO": "LFSB",
    "IATA": "BSL",
    "AIRPORT": "BASLE",
    "lat": 47.59,
    "lng": 7.529166666666667,
    "DMS": "47°35′24″N 007°31′45″E",
    "MSALat": 47.63333333333333,
    "MSALng": 7.5,
    "MSADMS": "N47 38.0 E007 30.0",
    "altitude": 6400
  },
  {
    "﻿ICAO": "LGAV",
    "IATA": "ATH",
    "AIRPORT": "ATHENS",
    "lat": 37.936388888888885,
    "lng": 23.947222222222223,
    "DMS": "37°56′11″N 23°56′50″E",
    "MSALat": 37.91833333333334,
    "MSALng": 23.938333333333333,
    "MSADMS": "N37 55.1 E023 56.3",
    "altitude": 7000
  },
  {
    "﻿ICAO": "LGIR",
    "IATA": "HER",
    "AIRPORT": "IRAKLION",
    "lat": 35.33972222222222,
    "lng": 25.18027777777778,
    "DMS": "35°20′23″N 25°10′49″E",
    "MSALat": 35.34,
    "MSALng": 25.185,
    "MSADMS": "N35 20.4 E025 11.1",
    "altitude": 10200
  },
  {
    "﻿ICAO": "LGRP",
    "IATA": "RHO",
    "AIRPORT": "RODOS",
    "lat": 36.40541944444444,
    "lng": 28.086191666666664,
    "DMS": "36°24′19.51″N 28°05′10.29″E",
    "MSALat": 36.4,
    "MSALng": 28.065,
    "MSADMS": "N36 24.0 E028 03.9",
    "altitude": 5500
  },
  {
    "﻿ICAO": "LGTS",
    "IATA": "SKG",
    "AIRPORT": "THESSALONIKI",
    "lat": 40.51972222222222,
    "lng": 22.97083333333333,
    "DMS": "40°31′11″N 22°58′15″E",
    "MSALat": 40.51833333333333,
    "MSALng": 22.97,
    "MSADMS": "N40 31.1 E022 58.2",
    "altitude": 5500
  },
  {
    "﻿ICAO": "LHBP",
    "IATA": "BUD",
    "AIRPORT": "BUDAPEST",
    "lat": 47.43944444444444,
    "lng": 19.261944444444445,
    "DMS": "47°26′22″N 019°15′43″E",
    "MSALat": 47.49333333333333,
    "MSALng": 19.446666666666665,
    "MSADMS": "N47 29.6 E019 26.8",
    "altitude": 3900
  },
  {
    "﻿ICAO": "LIBR",
    "IATA": "BDS",
    "AIRPORT": "BRINDISI",
    "lat": 40.6575,
    "lng": 17.946944444444444,
    "DMS": "40°39′27″N 17°56′49″E",
    "MSALat": 40.611666666666665,
    "MSALng": 18.003333333333334,
    "MSADMS": "N40 36.7 E018 00.2",
    "altitude": 2900
  },
  {
    "﻿ICAO": "LIEO",
    "IATA": "OLB",
    "AIRPORT": "OLBIA",
    "lat": 40.88583333333333,
    "lng": 9.516944444444444,
    "DMS": "40°53′09″N 09°31′01″E",
    "MSALat": 40.89,
    "MSALng": 9.501666666666667,
    "MSADMS": "N40 53.4 E009 30.1",
    "altitude": 6200
  },
  {
    "﻿ICAO": "LIMC",
    "IATA": "MXP",
    "AIRPORT": "MILAN MALPENSA",
    "lat": 45.63,
    "lng": 8.723055555555556,
    "DMS": "45°37′48″N 8°43′23″E",
    "MSALat": 45.64,
    "MSALng": 8.735,
    "MSADMS": "N45 38.4 E008 44.1",
    "altitude": 10300
  },
  {
    "﻿ICAO": "LIME",
    "IATA": "BGY",
    "AIRPORT": "BERGAMO",
    "lat": 45.66888888888889,
    "lng": 9.700277777777776,
    "DMS": "45°40′08″N 009°42′01″E",
    "MSALat": 45.67,
    "MSALng": 9.71,
    "MSADMS": "N45 40.2 E009 42.6",
    "altitude": 12400
  },
  {
    "﻿ICAO": "LIMF",
    "IATA": "TRN",
    "AIRPORT": "TORINO",
    "lat": 45.2025,
    "lng": 7.649444444444444,
    "DMS": "45°12′09″N 007°38′58″E",
    "MSALat": 45.22,
    "MSALng": 7.65,
    "MSADMS": "N45 13.2 E007 39.0",
    "altitude": 15700
  },
  {
    "﻿ICAO": "LIPE",
    "IATA": "BLQ",
    "AIRPORT": "BOLOGNA",
    "lat": 44.535444444444444,
    "lng": 11.288666666666666,
    "DMS": "44°32′07.6″N 11°17′19.2″E",
    "MSALat": 44.53666666666667,
    "MSALng": 11.29,
    "MSADMS": "N44 32.2 E011 17.4",
    "altitude": 7500
  },
  {
    "﻿ICAO": "LIPQ",
    "IATA": "TRS",
    "AIRPORT": "TRIESTE",
    "lat": 45.8275,
    "lng": 13.472222222222223,
    "DMS": "45°49′39″N 013°28′20″E",
    "MSALat": 45.83,
    "MSALng": 13.48,
    "MSADMS": "N45 49.8 E013 28.8",
    "altitude": 10500
  },
  {
    "﻿ICAO": "LIPZ",
    "IATA": "VCE",
    "AIRPORT": "VENICE",
    "lat": 45.50527777777778,
    "lng": 12.351944444444444,
    "DMS": "45°30′19″N 012°21′07″E",
    "MSALat": 45.51833333333333,
    "MSALng": 12.368333333333334,
    "MSADMS": "N45 31.1 E012 22.1",
    "altitude": 7200
  },
  {
    "﻿ICAO": "LIRA",
    "IATA": "CIA",
    "AIRPORT": "ROME CIA",
    "lat": 41.79944444444444,
    "lng": 12.597222222222223,
    "DMS": "41°47′58″N 012°35′50″E",
    "MSALat": 41.805,
    "MSALng": 12.588333333333333,
    "MSADMS": "N41 48.3 E012 35.3",
    "altitude": 8100
  },
  {
    "﻿ICAO": "LIRF",
    "IATA": "FCO",
    "AIRPORT": "ROME FCO",
    "lat": 41.80027777777777,
    "lng": 12.238888888888889,
    "DMS": "41°48′01″N 012°14′20″E",
    "MSALat": 41.803333333333335,
    "MSALng": 12.238333333333333,
    "MSADMS": "N41 48.2 E012 14.3",
    "altitude": 5800
  },
  {
    "﻿ICAO": "LIRN",
    "IATA": "NAP",
    "AIRPORT": "NAPLES",
    "lat": 40.88444444444444,
    "lng": 14.290833333333333,
    "DMS": "40°53′04″N 014°17′27″E",
    "MSALat": 40.928333333333335,
    "MSALng": 14.383333333333333,
    "MSADMS": "N40 55.7 E014 23.0",
    "altitude": 8400
  },
  {
    "﻿ICAO": "LIRP",
    "IATA": "PSA",
    "AIRPORT": "PISA",
    "lat": 43.68388888888889,
    "lng": 10.3925,
    "DMS": "43°41′02″N 010°23′33″E",
    "MSALat": 43.67666666666667,
    "MSALng": 10.391666666666667,
    "MSADMS": "N43 40.6 E010 23.5",
    "altitude": 8900
  },
  {
    "﻿ICAO": "LJLJ",
    "IATA": "LJU",
    "AIRPORT": "LJUBLJANA",
    "lat": 46.224444444444444,
    "lng": 14.45611111111111,
    "DMS": "46°13′28″N 14°27′22″E",
    "MSALat": 46.083333333333336,
    "MSALng": 14.778333333333334,
    "MSADMS": "N46 05.0 E014 46.7",
    "altitude": 9500
  },
  {
    "﻿ICAO": "LKMT",
    "IATA": "OSR",
    "AIRPORT": "OSTRAVA",
    "lat": 49.69611111111111,
    "lng": 18.110833333333336,
    "DMS": "49°41′46″N 018°06′39″E",
    "MSALat": 49.696666666666665,
    "MSALng": 18.108333333333334,
    "MSADMS": "N49 41.8 E018 06.5",
    "altitude": 6100
  },
  {
    "﻿ICAO": "LKPR",
    "IATA": "PRG",
    "AIRPORT": "PRAGUE",
    "lat": 50.100833333333334,
    "lng": 14.26,
    "DMS": "50°06′03″N 014°15′36″E",
    "MSALat": 50.096666666666664,
    "MSALng": 14.265,
    "MSADMS": "N50 05.8 E014 15.9",
    "altitude": 3900
  },
  {
    "﻿ICAO": "LKTB",
    "IATA": "BRQ",
    "AIRPORT": "BRNO",
    "lat": 49.15138888888889,
    "lng": 16.694444444444446,
    "DMS": "49°09′05″N 16°41′40″E",
    "MSALat": 49.15,
    "MSALng": 16.693333333333335,
    "MSADMS": "N49 09.0 E016 41.6",
    "altitude": 4100
  },
  {
    "﻿ICAO": "LMML",
    "IATA": "MLA",
    "AIRPORT": "MALTA",
    "lat": 35.8575,
    "lng": 14.477500000000001,
    "DMS": "35°51′27″N 014°28′39″E",
    "MSALat": 35.858333333333334,
    "MSALng": 14.478333333333333,
    "MSADMS": "N35 51.5 E014 28.7",
    "altitude": 2000
  },
  {
    "﻿ICAO": "LOWG",
    "IATA": "GRZ",
    "AIRPORT": "GRAZ",
    "lat": 46.99305555555556,
    "lng": 15.439166666666667,
    "DMS": "46°59′35″N 015°26′21″E",
    "MSALat": 46.955,
    "MSALng": 15.45,
    "MSADMS": "N46 57.3 E015 27.0",
    "altitude": 8300
  },
  {
    "﻿ICAO": "LOWL",
    "IATA": "LNZ",
    "AIRPORT": "LINZ",
    "lat": 48.233333333333334,
    "lng": 14.1875,
    "DMS": "48°14′00″N 14°11′15″E",
    "MSALat": 48.23,
    "MSALng": 14.103333333333333,
    "MSADMS": "N48 13.8 E014 06.2",
    "altitude": 8300
  },
  {
    "﻿ICAO": "LOWW",
    "IATA": "VIE",
    "AIRPORT": "VIENNA",
    "lat": 48.11083333333333,
    "lng": 16.570833333333333,
    "DMS": "48°06′39″N 016°34′15″E",
    "MSALat": 48.105,
    "MSALng": 16.63,
    "MSADMS": "N48 06.3 E016 37.8",
    "altitude": 4700
  },
  {
    "﻿ICAO": "LPAZ",
    "IATA": "SMA",
    "AIRPORT": "SANTA MARIA",
    "lat": 36.973888888888894,
    "lng": -25.171111111111113,
    "DMS": "36°58′26″N 25°10′16″W",
    "MSALat": 36.96333333333333,
    "MSALng": -25.166666666666668,
    "MSADMS": "N36 57.8 W025 10.0",
    "altitude": 3100
  },
  {
    "﻿ICAO": "LPBJ",
    "IATA": "BYJ",
    "AIRPORT": "BEJA",
    "lat": 38.07888888888889,
    "lng": -7.9325,
    "DMS": "38°04′44″N 007°55′57″W",
    "MSALat": 38.16,
    "MSALng": -7.921666666666667,
    "MSADMS": "N38 09.6 W007 55.3",
    "altitude": 2700
  },
  {
    "﻿ICAO": "LPFR",
    "IATA": "FAO",
    "AIRPORT": "FARO",
    "lat": 37.01444444444444,
    "lng": -7.965833333333333,
    "DMS": "37°00′52″N 007°57′57″W",
    "MSALat": 37.013333333333335,
    "MSALng": -7.975,
    "MSADMS": "N37 00.8 W007 58.5",
    "altitude": 3500
  },
  {
    "﻿ICAO": "LPLA",
    "IATA": "TER",
    "AIRPORT": "LAJES",
    "lat": 38.761944444444445,
    "lng": -27.090833333333332,
    "DMS": "38°45′43″N 027°05′27″W",
    "MSALat": 38.78333333333333,
    "MSALng": -27.105,
    "MSADMS": "N38 47.0 W027 06.3",
    "altitude": 4700
  },
  {
    "﻿ICAO": "LPPD",
    "IATA": "PDL",
    "AIRPORT": "PONTO DELGADA",
    "lat": 37.74194444444444,
    "lng": -25.697777777777777,
    "DMS": "37°44′31″N 025°41′52″W",
    "MSALat": 37.74166666666667,
    "MSALng": -25.698333333333334,
    "MSADMS": "N37 44.5 W025 41.9",
    "altitude": 5500
  },
  {
    "﻿ICAO": "LPPR",
    "IATA": "OPO",
    "AIRPORT": "PORTO",
    "lat": 41.23555555555556,
    "lng": -8.678055555555554,
    "DMS": "41°14′08″N 008°40′41″W",
    "MSALat": 41.235,
    "MSALng": -8.678333333333333,
    "MSADMS": "N41 14.1 W008 40.7",
    "altitude": 5100
  },
  {
    "﻿ICAO": "LPPS",
    "IATA": "PXO",
    "AIRPORT": "PORTO SANTO",
    "lat": 33.07083333333334,
    "lng": -16.349722222222223,
    "DMS": "33°04′15″N 016°20′59″W",
    "MSALat": 33.09,
    "MSALng": -16.35,
    "MSADMS": "N33 05.4 W016 21.0",
    "altitude": 3000
  },
  {
    "﻿ICAO": "LPPT",
    "IATA": "LIS",
    "AIRPORT": "LISBON",
    "lat": 38.774166666666666,
    "lng": -9.134166666666665,
    "DMS": "38°46′27″N 009°08′03″W",
    "MSALat": 38.888333333333335,
    "MSALng": -9.163333333333334,
    "MSADMS": "N38 53.3 W009 09.8",
    "altitude": 4000
  },
  {
    "﻿ICAO": "LROP",
    "IATA": "OTP",
    "AIRPORT": "BUCHAREST",
    "lat": 44.571111111111115,
    "lng": 26.084999999999997,
    "DMS": "44°34′16″N 026°05′06″E",
    "MSALat": 44.571666666666665,
    "MSALng": 26.085,
    "MSADMS": "N44 34.3 E026 05.1",
    "altitude": 2500
  },
  {
    "﻿ICAO": "LSGG",
    "IATA": "GVA",
    "AIRPORT": "GENEVA",
    "lat": 46.23833333333334,
    "lng": 6.109444444444444,
    "DMS": "46°14′18″N 006°06′34″E",
    "MSALat": 46.25333333333333,
    "MSALng": 6.131666666666667,
    "MSADMS": "N46 15.2 E006 07.9",
    "altitude": 10600
  },
  {
    "﻿ICAO": "LSZH",
    "IATA": "ZRH",
    "AIRPORT": "ZURICH",
    "lat": 47.46472222222223,
    "lng": 8.549166666666666,
    "DMS": "47°27′53″N 008°32′57″E",
    "MSALat": 47.45666666666666,
    "MSALng": 8.545,
    "MSADMS": "N47 27.4 E008 32.7",
    "altitude": 9200
  },
  {
    "﻿ICAO": "LTAC",
    "IATA": "ESB",
    "AIRPORT": "ANKARA",
    "lat": 40.128055555555555,
    "lng": 32.995,
    "DMS": "40°07′41″N 032°59′42″E",
    "MSALat": 40.24166666666667,
    "MSALng": 33.105,
    "MSADMS": "N40 14.5 E033 06.3",
    "altitude": 9000
  },
  {
    "﻿ICAO": "LTAF",
    "IATA": "ADA",
    "AIRPORT": "ADANA",
    "lat": 36.981944444444444,
    "lng": 35.280277777777776,
    "DMS": "36°58′55″N 035°16′49″E",
    "MSALat": 36.94,
    "MSALng": 35.21,
    "MSADMS": "N36 56.4 E035 12.6",
    "altitude": 7600
  },
  {
    "﻿ICAO": "LTAI",
    "IATA": "AYT",
    "AIRPORT": "ANTALYA",
    "lat": 36.900277777777774,
    "lng": 30.79277777777778,
    "DMS": "36°54′01″N 30°47′34″E",
    "MSALat": 36.92,
    "MSALng": 30.795,
    "MSADMS": "N36 55.2 E030 47.7",
    "altitude": 12000
  },
  {
    "﻿ICAO": "LTAN",
    "IATA": "KYA",
    "AIRPORT": "KONYA",
    "lat": 37.979,
    "lng": 32.56186111111111,
    "DMS": "37°58′44.40″N 032°33′42.70″E",
    "MSALat": 37.99666666666667,
    "MSALng": 32.565,
    "MSADMS": "N37 59.8 E032 33.9",
    "altitude": 8900
  },
  {
    "﻿ICAO": "LTBJ",
    "IATA": "ADB",
    "AIRPORT": "IZMIR",
    "lat": 38.29055555555556,
    "lng": 27.155277777777776,
    "DMS": "38°17′26″N 027°09′19″E",
    "MSALat": 38.295,
    "MSALng": 27.158333333333335,
    "MSADMS": "N38 17.7 E027 09.5",
    "altitude": 7000
  },
  {
    "﻿ICAO": "LTCA",
    "IATA": "IZD",
    "AIRPORT": "ELAZIG",
    "lat": 38.60666666666667,
    "lng": 39.29138888888889,
    "DMS": "38°36′24″N 039°17′29″E",
    "MSALat": 38.596666666666664,
    "MSALng": 39.28333333333333,
    "MSADMS": "N38 35.8 E039 17.0",
    "altitude": 10000
  },
  {
    "﻿ICAO": "LTCE",
    "IATA": "ERZ",
    "AIRPORT": "ERZURUM",
    "lat": 39.95527777777778,
    "lng": 41.16916666666666,
    "DMS": "39°57′19″N 41°10′09″E",
    "MSALat": 39.95666666666666,
    "MSALng": 41.20666666666666,
    "MSADMS": "N39 57.4 E041 12.4",
    "altitude": 13000
  },
  {
    "﻿ICAO": "LTCG",
    "IATA": "TZX",
    "AIRPORT": "TRABZON",
    "lat": 40.995,
    "lng": 39.78972222222222,
    "DMS": "40°59′42″N 39°47′23″E",
    "MSALat": 40.995,
    "MSALng": 39.795,
    "MSADMS": "N40 59.7 E039 47.7",
    "altitude": 11500
  },
  {
    "﻿ICAO": "LTFH",
    "IATA": "SZF",
    "AIRPORT": "SAMSUN",
    "lat": 41.26555555555556,
    "lng": 36.54861111111111,
    "DMS": "41°15′56″N 36°32′55″E",
    "MSALat": 41.265,
    "MSALng": 36.54833333333333,
    "MSADMS": "N41 15.9 E036 32.9",
    "altitude": 8000
  },
  {
    "﻿ICAO": "LTFJ",
    "IATA": "SAW",
    "AIRPORT": "ISTANBUL SAW",
    "lat": 40.89833333333333,
    "lng": 29.309166666666666,
    "DMS": "40°53′54″N 29°18′33″E",
    "MSALat": 40.9,
    "MSALng": 29.32,
    "MSADMS": "N40 54.0 E029 19.2",
    "altitude": 5000
  },
  {
    "﻿ICAO": "LTFM",
    "IATA": "IST",
    "AIRPORT": "ISTANBUL IST",
    "lat": 41.26222222222222,
    "lng": 28.727777777777778,
    "DMS": "41°15′44″N 28°43′40″E",
    "MSALat": 41.275,
    "MSALng": 28.751666666666665,
    "MSADMS": "N41 16.5 E028 45.1",
    "altitude": 3500
  },
  {
    "﻿ICAO": "LUKK",
    "IATA": "KIV",
    "AIRPORT": "CHISINAU",
    "lat": 46.92777777777778,
    "lng": 28.930833333333336,
    "DMS": "46°55′40″N 028°55′51″E",
    "MSALat": 46.92666666666667,
    "MSALng": 28.905,
    "MSADMS": "N46 55.6 E028 54.3",
    "altitude": 3300
  },
  {
    "﻿ICAO": "LYBE",
    "IATA": "BEG",
    "AIRPORT": "BELGRADE",
    "lat": 44.81944444444445,
    "lng": 20.306944444444444,
    "DMS": "44°49′10″N 20°18′25″E",
    "MSALat": 44.82,
    "MSALng": 20.311666666666667,
    "MSADMS": "N44 49.2 E020 18.7",
    "altitude": 3300
  },
  {
    "﻿ICAO": "MBPV",
    "IATA": "PLS",
    "AIRPORT": "PROVIDENCIALES",
    "lat": 21.77361111111111,
    "lng": -72.26583333333333,
    "DMS": "21°46′25″N 72°15′57″W",
    "MSALat": 21.77166666666667,
    "MSALng": -72.26666666666667,
    "MSADMS": "N21 46.3 W072 16.0",
    "altitude": 1300
  },
  {
    "﻿ICAO": "MDPC",
    "IATA": "PUJ",
    "AIRPORT": "HIGUEY",
    "lat": 18.566666666666666,
    "lng": -68.35194444444444,
    "DMS": "18°34′00″N 68°21′07″W",
    "MSALat": 18.566666666666666,
    "MSALng": -68.38333333333334,
    "MSADMS": "N18 34.0 W068 23.0",
    "altitude": 3800
  },
  {
    "﻿ICAO": "MDSD",
    "IATA": "SDQ",
    "AIRPORT": "SANTO DOMINGO",
    "lat": 18.429444444444446,
    "lng": -69.66888888888889,
    "DMS": "18°25′46″N 069°40′08″W",
    "MSALat": 18.433333333333334,
    "MSALng": -69.66666666666667,
    "MSADMS": "N18 26.0 W069 40.0",
    "altitude": 4000
  },
  {
    "﻿ICAO": "MKJP",
    "IATA": "KIN",
    "AIRPORT": "KINGSTON",
    "lat": 17.935555555555556,
    "lng": -76.7875,
    "DMS": "17°56′08″N 076°47′15″W",
    "MSALat": 17.93,
    "MSALng": -76.77833333333334,
    "MSADMS": "N17 55.8 W076 46.7",
    "altitude": 9500
  },
  {
    "﻿ICAO": "MMAA",
    "IATA": "ACA",
    "AIRPORT": "ACAPULCO",
    "lat": 16.756027777777778,
    "lng": -99.75161111111112,
    "DMS": "16°45′21.7″N 99°45′05.8″W",
    "MSALat": 16.758333333333333,
    "MSALng": -99.75333333333333,
    "MSADMS": "N16 45.5 W099 45.2",
    "altitude": 9400
  },
  {
    "﻿ICAO": "MMCU",
    "IATA": "CUU",
    "AIRPORT": "CHIHUAHUA",
    "lat": 28.702777777777776,
    "lng": -105.96166666666667,
    "DMS": "28°42′10″N 105°57′42″W",
    "MSALat": 28.716666666666665,
    "MSALng": -105.95833333333333,
    "MSADMS": "N28 43.0 W105 57.5",
    "altitude": 10900
  },
  {
    "﻿ICAO": "MMGL",
    "IATA": "GDL",
    "AIRPORT": "GUADALAJARA",
    "lat": 20.521666666666665,
    "lng": -103.3111111111111,
    "DMS": "20°31′18″N 103°18′40″W",
    "MSALat": 20.523333333333333,
    "MSALng": -103.31166666666667,
    "MSADMS": "N20 31.4 W103 18.7",
    "altitude": 11700
  },
  {
    "﻿ICAO": "MMMX",
    "IATA": "MEX",
    "AIRPORT": "MEXICO CITY",
    "lat": 19.43611111111111,
    "lng": -99.07194444444444,
    "DMS": "19°26′10″N 099°04′19″W",
    "MSALat": 19.438333333333333,
    "MSALng": -99.06833333333333,
    "MSADMS": "N19 26.3 W099 04.1",
    "altitude": 19400
  },
  {
    "﻿ICAO": "MMMY",
    "IATA": "MTY",
    "AIRPORT": "MONTERREY",
    "lat": 25.778333333333332,
    "lng": -100.10638888888889,
    "DMS": "25°46′42″N 100°06′23″W",
    "MSALat": 25.773333333333333,
    "MSALng": -100.10333333333334,
    "MSADMS": "N25 46.4 W100 06.2",
    "altitude": 12500
  },
  {
    "﻿ICAO": "MMPB",
    "IATA": "PBC",
    "AIRPORT": "PUEBLA",
    "lat": 19.158055555555553,
    "lng": -98.37138888888889,
    "DMS": "19°09′29″N 98°22′17″W",
    "MSALat": 19.161666666666665,
    "MSALng": -98.37,
    "MSADMS": "N19 09.7 W098 22.2",
    "altitude": 19900
  },
  {
    "﻿ICAO": "MMQT",
    "IATA": "QRO",
    "AIRPORT": "RUERETARO",
    "lat": 20.617361111111112,
    "lng": -100.18566666666668,
    "DMS": "20°37′02.5″N 100°11′08.4″W",
    "MSALat": 20.616666666666667,
    "MSALng": -100.19333333333333,
    "MSADMS": "N20 37.0 W100 11.6",
    "altitude": 12800
  },
  {
    "﻿ICAO": "MMUN",
    "IATA": "CUN",
    "AIRPORT": "CANCUN",
    "lat": 21.03666666666667,
    "lng": -86.87694444444443,
    "DMS": "21°02′12″N 86°52′37″W",
    "MSALat": 21.025,
    "MSALng": -86.85833333333333,
    "MSADMS": "N21 01.5 W086 51.5",
    "altitude": 2000
  },
  {
    "﻿ICAO": "MPPA",
    "IATA": "BLB",
    "AIRPORT": "BALBOA",
    "lat": 8.915000000000001,
    "lng": -79.59944444444444,
    "DMS": "8°54′54″N 79°35′58″W",
    "MSALat": 8.788333333333334,
    "MSALng": -79.56166666666667,
    "MSADMS": "N08 47.3 W079 33.7",
    "altitude": 5000
  },
  {
    "﻿ICAO": "MPSM",
    "IATA": "RIH",
    "AIRPORT": "RIO HATO",
    "lat": 8.375833333333334,
    "lng": -80.12777777777777,
    "DMS": "8°22′33″N 80°07′40″W",
    "MSALat": 8.375,
    "MSALng": -80.12666666666667,
    "MSADMS": "N08 22.5 W080 07.6",
    "altitude": 4800
  },
  {
    "﻿ICAO": "MPTO",
    "IATA": "PTY",
    "AIRPORT": "PANAMA CITY",
    "lat": 9.071388888888889,
    "lng": -79.38361111111112,
    "DMS": "9°04′17″N 79°23′01″W",
    "MSALat": 9.051666666666666,
    "MSALng": -79.4,
    "MSADMS": "N09 03.1 W079 24.0",
    "altitude": 4500
  },
  {
    "﻿ICAO": "MROC",
    "IATA": "SJO",
    "AIRPORT": "SAN JOSE",
    "lat": 9.993888888888888,
    "lng": -84.2088888888889,
    "DMS": "09°59′38″N 084°12′32″W",
    "MSALat": 9.983333333333333,
    "MSALng": -84.23666666666666,
    "MSADMS": "N09 59.0 W084 14.2",
    "altitude": 12500
  },
  {
    "﻿ICAO": "MSLP",
    "IATA": "SAL",
    "AIRPORT": "SAN SALVADOR",
    "lat": 13.440833333333334,
    "lng": -89.05555555555556,
    "DMS": "13°26′27″N 89°03′20″W",
    "MSALat": 13.441666666666666,
    "MSALng": -89.04833333333333,
    "MSADMS": "N13 26.5 W089 02.9",
    "altitude": 8200
  },
  {
    "﻿ICAO": "MYGF",
    "IATA": "FPO",
    "AIRPORT": "FREEPORT",
    "lat": 26.558611111111112,
    "lng": -78.69555555555556,
    "DMS": "26°33′31″N 078°41′44″W",
    "MSALat": 26.555,
    "MSALng": -78.69833333333334,
    "MSADMS": "N26 33.3 W078 41.9",
    "altitude": 1500
  },
  {
    "﻿ICAO": "MYNN",
    "IATA": "NAS",
    "AIRPORT": "NASSAU",
    "lat": 25.03888888888889,
    "lng": -77.46611111111112,
    "DMS": "25°02′20″N 077°27′58″W",
    "MSALat": 25.025,
    "MSALng": -77.44666666666667,
    "MSADMS": "N25 01.5 W077 26.8",
    "altitude": 1500
  },
  {
    "﻿ICAO": "NCRG",
    "IATA": "RAR",
    "AIRPORT": "RAROTONGA INTL",
    "lat": -21.202777777777776,
    "lng": -159.80555555555557,
    "DMS": "21°12′10″S 159°48′20″W",
    "MSALat": -21.201666666666668,
    "MSALng": -159.815,
    "MSADMS": "S21 12.1 W159 48.9",
    "altitude": 3300
  },
  {
    "﻿ICAO": "NFFN",
    "IATA": "NAN",
    "AIRPORT": "NADI INTL",
    "lat": -17.755277777777778,
    "lng": 177.44333333333333,
    "DMS": "17°45′19″S 177°26′36″E",
    "MSALat": -17.785,
    "MSALng": 177.42,
    "MSADMS": "S17 47.1 E177 25.2",
    "altitude": 5100
  },
  {
    "﻿ICAO": "NFTF",
    "IATA": "TBU",
    "AIRPORT": "NUKU ALOFA",
    "lat": -21.241111111111113,
    "lng": -175.14944444444444,
    "DMS": "21°14′28″S 175°08′58″W",
    "MSALat": -21.245,
    "MSALng": -175.14833333333334,
    "MSADMS": "S21 14.7 W175 08.9",
    "altitude": 2200
  },
  {
    "﻿ICAO": "NGTA",
    "IATA": "TRW",
    "AIRPORT": "TARAWA",
    "lat": 1.3816666666666666,
    "lng": 173.14694444444444,
    "DMS": "01°22′54″N 173°08′49″E",
    "MSALat": 1.3816666666666666,
    "MSALng": 173.14666666666668,
    "MSADMS": "N01 22.9 E173 08.8",
    "altitude": 1200
  },
  {
    "﻿ICAO": "NIUE",
    "IATA": "IUE",
    "AIRPORT": "NIUE ISLAND",
    "lat": -19.078888888888887,
    "lng": -169.92583333333332,
    "DMS": "19°04′44″S 169°55′33″W",
    "MSALat": -19.075,
    "MSALng": -169.91666666666666,
    "MSADMS": "S19 04.5 W169 55.0",
    "altitude": 1500
  },
  {
    "﻿ICAO": "NSFA",
    "IATA": "APW",
    "AIRPORT": "APIA",
    "lat": -13.829722222222221,
    "lng": -172.00833333333333,
    "DMS": "13°49′47″S 172°00′30″W",
    "MSALat": -13.83,
    "MSALng": -171.99333333333334,
    "MSADMS": "S13 49.8 W171 59.6",
    "altitude": 8200
  },
  {
    "﻿ICAO": "NSTU",
    "IATA": "PPG",
    "AIRPORT": "PAGO PAGO",
    "lat": -14.328055555555554,
    "lng": -170.71194444444444,
    "DMS": "14°19′41″S 170°42′43″W",
    "MSALat": -14.333333333333334,
    "MSALng": -170.70833333333334,
    "MSADMS": "S14 20.0 W170 42.5",
    "altitude": 3300
  },
  {
    "﻿ICAO": "NTAA",
    "IATA": "PPT",
    "AIRPORT": "TAHITI",
    "lat": -17.55666666666667,
    "lng": -149.61138888888888,
    "DMS": "17°33′24″S 149°36′41″W",
    "MSALat": -17.546666666666667,
    "MSALng": -149.60166666666666,
    "MSADMS": "S17 32.8 W149 36.1",
    "altitude": 9000
  },
  {
    "﻿ICAO": "NVVV",
    "IATA": "VLI",
    "AIRPORT": "PORT VILA",
    "lat": -17.699166666666667,
    "lng": 168.31972222222223,
    "DMS": "17°41′57″S 168°19′11″E",
    "MSALat": -17.661666666666665,
    "MSALng": 168.24333333333334,
    "MSADMS": "S17 39.7 E168 14.6",
    "altitude": 3400
  },
  {
    "﻿ICAO": "NWWW",
    "IATA": "NOU",
    "AIRPORT": "NOUMEA TONTOUTA",
    "lat": -22.01638888888889,
    "lng": 166.2161111111111,
    "DMS": "22°00′59″S 166°12′58″E",
    "MSALat": -22.005,
    "MSALng": 166.21166666666667,
    "MSADMS": "S22 00.3 E166 12.7",
    "altitude": 6400
  },
  {
    "﻿ICAO": "NZAA",
    "IATA": "AKL",
    "AIRPORT": "AUCKLAND",
    "lat": -37.00805555555556,
    "lng": 174.79166666666666,
    "DMS": "37°00′29″S 174°47′30″E",
    "MSALat": -37.005,
    "MSALng": 174.81333333333333,
    "MSADMS": "S37 00.3 E174 48.8",
    "altitude": 3400
  },
  {
    "﻿ICAO": "NZCH",
    "IATA": "CHC",
    "AIRPORT": "CHRISTCHURCH",
    "lat": -43.489444444444445,
    "lng": 172.53222222222223,
    "DMS": "43°29′22″S 172°31′56″E",
    "MSALat": -43.50333333333333,
    "MSALng": 172.515,
    "MSADMS": "S43 30.2 E172 30.9",
    "altitude": 7100
  },
  {
    "﻿ICAO": "NZOH",
    "IATA": "OHA",
    "AIRPORT": "OHAKEA",
    "lat": -40.20611111111111,
    "lng": 175.38777777777776,
    "DMS": "40°12′22″S 175°23′16″E",
    "MSALat": -40.21,
    "MSALng": 175.39166666666668,
    "MSADMS": "S40 12.6 E175 23.5",
    "altitude": 6700
  },
  {
    "﻿ICAO": "NZWN",
    "IATA": "WLG",
    "AIRPORT": "WELLINGTON",
    "lat": -41.327222222222225,
    "lng": 174.8052777777778,
    "DMS": "41°19′38″S 174°48′19″E",
    "MSALat": -41.336666666666666,
    "MSALng": 174.81666666666666,
    "MSADMS": "S41 20.2 E174 49.0",
    "altitude": 6600
  },
  {
    "﻿ICAO": "OAKB",
    "IATA": "KBL",
    "AIRPORT": "KABUL",
    "lat": 34.56583333333333,
    "lng": 69.21305555555556,
    "DMS": "34°33′57″N 069°12′47″E",
    "MSALat": 34.545,
    "MSALng": 69.29,
    "MSADMS": "N34 32.7 E069 17.4",
    "altitude": 17500
  },
  {
    "﻿ICAO": "OBBI",
    "IATA": "BAH",
    "AIRPORT": "BAHRAIN",
    "lat": 26.270833333333332,
    "lng": 50.63361111111111,
    "DMS": "26°16′15″N 50°38′01″E",
    "MSALat": 26.27166666666667,
    "MSALng": 50.63333333333333,
    "MSADMS": "N26 16.3 E050 38.0",
    "altitude": 2000
  },
  {
    "﻿ICAO": "OEDF",
    "IATA": "DMM",
    "AIRPORT": "DAMMAM",
    "lat": 26.471194444444443,
    "lng": 49.79858333333333,
    "DMS": "26°28′16.3″N 049°47′54.9″E",
    "MSALat": 26.498333333333335,
    "MSALng": 49.778333333333336,
    "MSADMS": "N26 29.9 E049 46.7",
    "altitude": 2500
  },
  {
    "﻿ICAO": "OEGS",
    "IATA": "ELQ",
    "AIRPORT": "GASSIM",
    "lat": 26.302777777777777,
    "lng": 43.77388888888889,
    "DMS": "26°18′10″N 043°46′26″E",
    "MSALat": 26.298333333333332,
    "MSALng": 43.78,
    "MSADMS": "N26 17.9 E043 46.8",
    "altitude": 5000
  },
  {
    "﻿ICAO": "OEJN",
    "IATA": "JED",
    "AIRPORT": "JEDDAH",
    "lat": 21.679444444444446,
    "lng": 39.156666666666666,
    "DMS": "21°40′46″N 039°09′24″E",
    "MSALat": 21.711666666666666,
    "MSALng": 39.123333333333335,
    "MSADMS": "N21 42.7 E039 07.4",
    "altitude": 4500
  },
  {
    "﻿ICAO": "OEMA",
    "IATA": "MED",
    "AIRPORT": "MADINAH",
    "lat": 24.553333333333335,
    "lng": 39.705000000000005,
    "DMS": "24°33′12″N 039°42′18″E",
    "MSALat": 24.548333333333332,
    "MSALng": 39.705,
    "MSADMS": "N24 32.9 E039 42.3",
    "altitude": 8000
  },
  {
    "﻿ICAO": "OERK",
    "IATA": "RUH",
    "AIRPORT": "RIYADH",
    "lat": 24.95777777777778,
    "lng": 46.69888888888889,
    "DMS": "24°57′28″N 046°41′56″E",
    "MSALat": 24.886666666666667,
    "MSALng": 46.76,
    "MSADMS": "N24 53.2 E046 45.6",
    "altitude": 5000
  },
  {
    "﻿ICAO": "OETF",
    "IATA": "TIF",
    "AIRPORT": "TAIF",
    "lat": 21.4834,
    "lng": 40.54152222222222,
    "DMS": "21°29′0.24″N 40°32′29.48″E",
    "MSALat": 2.486666666666667,
    "MSALng": 40.54666666666667,
    "MSADMS": "N2 29.2 E040 32.8",
    "altitude": 10000
  },
  {
    "﻿ICAO": "OETR",
    "IATA": "TUI",
    "AIRPORT": "TURAIF",
    "lat": 31.6925,
    "lng": 38.73111111111111,
    "DMS": "31°41′33″N 038°43′52″E",
    "MSALat": 31.695,
    "MSALng": 38.73166666666667,
    "MSADMS": "N31 41.7 E038 43.9",
    "altitude": 5000
  },
  {
    "﻿ICAO": "OIBB",
    "IATA": "BUZ",
    "AIRPORT": "BUSHEHR",
    "lat": 28.94481111111111,
    "lng": 50.83463611111112,
    "DMS": "28°56′41.32″N 050°50′04.69″E",
    "MSALat": 28.951666666666668,
    "MSALng": 50.82666666666667,
    "MSADMS": "N28 57.1 E050 49.6",
    "altitude": 5000
  },
  {
    "﻿ICAO": "OICC",
    "IATA": "KSH",
    "AIRPORT": "KERMANSHAH",
    "lat": 34.34585277777778,
    "lng": 47.15812777777778,
    "DMS": "34°20′45.07″N 047°09′29.26″E",
    "MSALat": 34.34,
    "MSALng": 47.16833333333334,
    "MSADMS": "N34 20.4 E047 10.1",
    "altitude": 13500
  },
  {
    "﻿ICAO": "OIFM",
    "IATA": "IFN",
    "AIRPORT": "ESFAHAN",
    "lat": 32.75083333333333,
    "lng": 51.861111111111114,
    "DMS": "32°45′03″N 51°51′40″E",
    "MSALat": 32.74666666666667,
    "MSALng": 51.82833333333333,
    "MSADMS": "N32 44.8 E051 49.7",
    "altitude": 12000
  },
  {
    "﻿ICAO": "OIIE",
    "IATA": "IKA",
    "AIRPORT": "TEHERAN IKA",
    "lat": 35.41611111111111,
    "lng": 51.15222222222222,
    "DMS": "35°24′58″N 051°09′08″E",
    "MSALat": 35.41,
    "MSALng": 51.178333333333335,
    "MSADMS": "N35 24.6 E051 10.7",
    "altitude": 13500
  },
  {
    "﻿ICAO": "OIII",
    "IATA": "THR",
    "AIRPORT": "TEHERAN THR",
    "lat": 35.689166666666665,
    "lng": 51.31361111111111,
    "DMS": "35°41′21″N 51°18′49″E",
    "MSALat": 35.696666666666665,
    "MSALng": 51.28333333333333,
    "MSADMS": "N35 41.8 E051 17.0",
    "altitude": 17000
  },
  {
    "﻿ICAO": "OIKK",
    "IATA": "KER",
    "AIRPORT": "KERMAN",
    "lat": 30.274444444444445,
    "lng": 56.95111111111111,
    "DMS": "30°16′28″N 056°57′04″E",
    "MSALat": 30.285,
    "MSALng": 56.943333333333335,
    "MSADMS": "N30 17.1 E056 56.6",
    "altitude": 16000
  },
  {
    "﻿ICAO": "OIMM",
    "IATA": "MHD",
    "AIRPORT": "MASHAD",
    "lat": 36.235,
    "lng": 59.64083333333333,
    "DMS": "36°14′06″N 59°38′27″E",
    "MSALat": 36.23166666666667,
    "MSALng": 59.65,
    "MSADMS": "N36 13.9 E059 39.0",
    "altitude": 11800
  },
  {
    "﻿ICAO": "OISS",
    "IATA": "SYZ",
    "AIRPORT": "SHIRAZ",
    "lat": 29.539166666666667,
    "lng": 52.59,
    "DMS": "29°32′21″N 52°35′24″E",
    "MSALat": 29.54,
    "MSALng": 52.58833333333333,
    "MSADMS": "N29 32.4 E052 35.3",
    "altitude": 12200
  },